{
"type": "FeatureCollection",
"features": [
{ "type": "Feature", "properties": { "source:pkey": "A-164-F", "addr:province": "Alicante", "addr:city": "Agost", "operator": "Carlos Gisbert Arques", "addr:street": "PLAZA DE ESPAÑA", "addr:housenumber": " 19", "addr:postcode": " 03698", "source": "Opendata Generalitat Valenciana", "amenity": "pharmacy", "lat": 38.4022913, "lon": -0.6588074 }, "geometry": { "type": "Point", "coordinates": [ -0.6588074, 38.4022913 ] } },
{ "type": "Feature", "properties": { "source:pkey": "A-285-F", "addr:province": "Alicante", "addr:city": "Agost", "operator": "Francisco Ayuso Macia", "addr:street": "Avinguda de Virgen de la Paz", "addr:housenumber": " 30", "addr:postcode": " 03698", "source": "Opendata Generalitat Valenciana", "amenity": "pharmacy", "lat": 38.4373541, "lon": -0.63825 }, "geometry": { "type": "Point", "coordinates": [ -0.63825, 38.4373541 ] } },
{ "type": "Feature", "properties": { "source:pkey": "A-510-F", "addr:province": "Alicante", "addr:city": "Agres", "operator": "Inmaculada Ferrero Perez", "addr:street": "Carrer de San Antonio", "addr:housenumber": " 13", "addr:postcode": " 03837", "source": "Opendata Generalitat Valenciana", "amenity": "pharmacy", "lat": 38.7972956, "lon": 0.1813535 }, "geometry": { "type": "Point", "coordinates": [ 0.1813535, 38.7972956 ] } },
{ "type": "Feature", "properties": { "source:pkey": "A-540-F", "addr:province": "Alicante", "addr:city": "Aigües", "operator": "Javier Villamayor Piñas", "addr:street": "Carrer de CANALEJAS", "addr:housenumber": " 12", "addr:postcode": " 03569", "source": "Opendata Generalitat Valenciana", "amenity": "pharmacy", "lat": 38.5007721, "lon": -0.3647319 }, "geometry": { "type": "Point", "coordinates": [ -0.3647319, 38.5007721 ] } },
{ "type": "Feature", "properties": { "source:pkey": "A-13-F", "addr:province": "Alicante", "addr:city": "Albatera", "operator": "Isabel Balsameda Morales", "addr:street": "Carrer de Ramon y Cajal", "addr:housenumber": " 6", "addr:postcode": " 03340", "source": "Opendata Generalitat Valenciana", "amenity": "pharmacy", "lat": 38.4373541, "lon": -0.63825 }, "geometry": { "type": "Point", "coordinates": [ -0.63825, 38.4373541 ] } },
{ "type": "Feature", "properties": { "source:pkey": "A-580-F", "addr:province": "Alicante", "addr:city": "Albatera", "operator": "Maria Del Mar Garcia Molina", "addr:street": "Avinguda de Calvario", "addr:housenumber": " 39", "addr:postcode": " 03340", "source": "Opendata Generalitat Valenciana", "amenity": "pharmacy", "lat": 38.5359142, "lon": -0.1248669 }, "geometry": { "type": "Point", "coordinates": [ -0.1248669, 38.5359142 ] } },
{ "type": "Feature", "properties": { "source:pkey": "A-814-F", "addr:province": "Alicante", "addr:city": "Albatera", "operator": "Francisco Garcia Canovas", "addr:street": "Carrer de Meson", "addr:housenumber": " 45", "addr:postcode": " 03340", "source": "Opendata Generalitat Valenciana", "amenity": "pharmacy", "lat": 38.057194, "lon": -0.6664588 }, "geometry": { "type": "Point", "coordinates": [ -0.6664588, 38.057194 ] } },
{ "type": "Feature", "properties": { "source:pkey": "A-531-F", "addr:province": "Alicante", "addr:city": "Alcalalí", "operator": "Encarnacion Moll Mengual", "addr:street": "Carrer de Calvari", "addr:housenumber": " 7", "addr:postcode": " 03728", "source": "Opendata Generalitat Valenciana", "amenity": "pharmacy", "lat": 38.7499024, "lon": -0.0397984 }, "geometry": { "type": "Point", "coordinates": [ -0.0397984, 38.7499024 ] } },
{ "type": "Feature", "properties": { "source:pkey": "A-748-F", "addr:province": "Alicante", "addr:city": "Alcalalí", "operator": "Raquel Ferrer Gonzalez", "addr:street": "Carrer de SALAMANCA", "addr:housenumber": " 19", "addr:postcode": " 03723", "source": "Opendata Generalitat Valenciana", "amenity": "pharmacy", "lat": 38.5436315, "lon": -0.134395 }, "geometry": { "type": "Point", "coordinates": [ -0.134395, 38.5436315 ] } },
{ "type": "Feature", "properties": { "source:pkey": "A-642-F", "addr:province": "Alicante", "addr:city": "Alcocer De Planes", "operator": "Susana  Martinez Valles", "addr:street": "Carrer de San Jose", "addr:housenumber": " 1", "addr:postcode": " 03841", "source": "Opendata Generalitat Valenciana", "amenity": "pharmacy", "lat": 38.7946758, "lon": -0.403351 }, "geometry": { "type": "Point", "coordinates": [ -0.403351, 38.7946758 ] } },
{ "type": "Feature", "properties": { "source:pkey": "A-546-F", "addr:province": "Alicante", "addr:city": "Alcoleja", "operator": "Gemma Bernabeu Ivorra", "addr:street": "Avinguda de DEL PAIS VALENCIANO", "addr:housenumber": " 10", "addr:postcode": " 03814", "source": "Opendata Generalitat Valenciana", "amenity": "pharmacy", "lat": 38.5366643, "lon": -0.17969464960320225 }, "geometry": { "type": "Point", "coordinates": [ -0.179694649603202, 38.5366643 ] } },
{ "type": "Feature", "properties": { "source:pkey": "A-104-F", "addr:province": "Alicante", "addr:city": "Alcoi \/ Alcoy", "operator": "Maria Vicenta Cerda Ferre", "addr:street": "Carrer de Santa Rosa", "addr:housenumber": " 19", "addr:postcode": " 03802", "source": "Opendata Generalitat Valenciana", "amenity": "pharmacy", "lat": 38.6938544, "lon": -0.4876564 }, "geometry": { "type": "Point", "coordinates": [ -0.4876564, 38.6938544 ] } },
{ "type": "Feature", "properties": { "source:pkey": "A-126-F", "addr:province": "Alicante", "addr:city": "Alcoi \/ Alcoy", "operator": "Santiago Llull Mir", "addr:street": "Carrer de Ibi", "addr:housenumber": " 20", "addr:postcode": " 03802", "source": "Opendata Generalitat Valenciana", "amenity": "pharmacy", "lat": 38.6956172, "lon": -0.4853493 }, "geometry": { "type": "Point", "coordinates": [ -0.4853493, 38.6956172 ] } },
{ "type": "Feature", "properties": { "source:pkey": "A-171-F", "addr:province": "Alicante", "addr:city": "Alcoi \/ Alcoy", "operator": "Francisco Enrique Dominguez", "addr:street": "Carrer de Oliver", "addr:housenumber": " 15", "addr:postcode": " 03802", "source": "Opendata Generalitat Valenciana", "amenity": "pharmacy", "lat": 38.5406321, "lon": -0.5059295 }, "geometry": { "type": "Point", "coordinates": [ -0.5059295, 38.5406321 ] } },
{ "type": "Feature", "properties": { "source:pkey": "A-184-F", "addr:province": "Alicante", "addr:city": "Alcoi \/ Alcoy", "operator": "María Teresa Penades Pinilla", "addr:street": "Carrer de Sant Nicolau", "addr:housenumber": " 18", "addr:postcode": " 03801", "source": "Opendata Generalitat Valenciana", "amenity": "pharmacy", "lat": 38.6958879, "lon": -0.4731752 }, "geometry": { "type": "Point", "coordinates": [ -0.4731752, 38.6958879 ] } },
{ "type": "Feature", "properties": { "source:pkey": "A-226-F", "addr:province": "Alicante", "addr:city": "Alcoi \/ Alcoy", "operator": "Margarita Robles Saez", "addr:street": "Carrer de Sant Llorenç", "addr:housenumber": " 25", "addr:postcode": " 03801", "source": "Opendata Generalitat Valenciana", "amenity": "pharmacy", "lat": 38.6974162, "lon": -0.4742817 }, "geometry": { "type": "Point", "coordinates": [ -0.4742817, 38.6974162 ] } },
{ "type": "Feature", "properties": { "source:pkey": "A-227-F", "addr:province": "Alicante", "addr:city": "Alcoi \/ Alcoy", "operator": "Isabel Maria Ramirez Rodriguez", "addr:street": "Carrer de Alçamora (els)", "addr:housenumber": " 19", "addr:postcode": " 03802", "source": "Opendata Generalitat Valenciana", "amenity": "pharmacy", "lat": 38.695235, "lon": -0.4798729 }, "geometry": { "type": "Point", "coordinates": [ -0.4798729, 38.695235 ] } },
{ "type": "Feature", "properties": { "source:pkey": "A-232-F", "addr:province": "Alicante", "addr:city": "Alcoi \/ Alcoy", "operator": "Carlos Daniel Fluvia Peiro", "addr:street": "Avinguda de ALAMEDA", "addr:housenumber": " 28", "addr:postcode": " 03800", "source": "Opendata Generalitat Valenciana", "amenity": "pharmacy", "lat": 38.5358366, "lon": -0.1219299 }, "geometry": { "type": "Point", "coordinates": [ -0.1219299, 38.5358366 ] } },
{ "type": "Feature", "properties": { "source:pkey": "A-23-F", "addr:province": "Alicante", "addr:city": "Alcoi \/ Alcoy", "operator": "Jorge Boronat Cortés", "addr:street": "Carrer de Oliver", "addr:housenumber": " 51", "addr:postcode": " 03802", "source": "Opendata Generalitat Valenciana", "amenity": "pharmacy", "lat": 38.5406321, "lon": -0.5059295 }, "geometry": { "type": "Point", "coordinates": [ -0.5059295, 38.5406321 ] } },
{ "type": "Feature", "properties": { "source:pkey": "A-247-F", "addr:province": "Alicante", "addr:city": "Alcoi \/ Alcoy", "operator": "Alexandra Prats Sempere", "addr:street": "Carrer de Sant Tomas", "addr:housenumber": " 11", "addr:postcode": " 03801", "source": "Opendata Generalitat Valenciana", "amenity": "pharmacy", "lat": 38.6983877, "lon": -0.4733994 }, "geometry": { "type": "Point", "coordinates": [ -0.4733994, 38.6983877 ] } },
{ "type": "Feature", "properties": { "source:pkey": "A-266-F", "addr:province": "Alicante", "addr:city": "Alcoi \/ Alcoy", "operator": "Miguel Boronat Martinez", "addr:street": "Carrer de Pintor Casanova", "addr:housenumber": " 8", "addr:postcode": " 03801", "source": "Opendata Generalitat Valenciana", "amenity": "pharmacy", "lat": 38.6990926, "lon": -0.4731206 }, "geometry": { "type": "Point", "coordinates": [ -0.4731206, 38.6990926 ] } },
{ "type": "Feature", "properties": { "source:pkey": "A-267-F", "addr:province": "Alicante", "addr:city": "Alcoi \/ Alcoy", "operator": "Mar Valero Mas", "addr:street": "Avinguda del País Valencià", "addr:housenumber": " 8", "addr:postcode": " 03801", "source": "Opendata Generalitat Valenciana", "amenity": "pharmacy", "lat": 38.6963971, "lon": -0.476801 }, "geometry": { "type": "Point", "coordinates": [ -0.476801, 38.6963971 ] } },
{ "type": "Feature", "properties": { "source:pkey": "A-272-F", "addr:province": "Alicante", "addr:city": "Alcoi \/ Alcoy", "operator": "Mª Belen Tomas Garcia", "addr:street": "Carrer de CID", "addr:housenumber": " 64", "addr:postcode": " 03803", "source": "Opendata Generalitat Valenciana", "amenity": "pharmacy", "lat": 38.5406321, "lon": -0.5059295 }, "geometry": { "type": "Point", "coordinates": [ -0.5059295, 38.5406321 ] } },
{ "type": "Feature", "properties": { "source:pkey": "A-28-F", "addr:province": "Alicante", "addr:city": "Alcoi \/ Alcoy", "operator": "Maria Ascension Ferre Gimeno", "addr:street": "Carrer de Francesc Perera", "addr:housenumber": " 4", "addr:postcode": " 03803", "source": "Opendata Generalitat Valenciana", "amenity": "pharmacy", "lat": 38.700656, "lon": -0.4837136 }, "geometry": { "type": "Point", "coordinates": [ -0.4837136, 38.700656 ] } },
{ "type": "Feature", "properties": { "source:pkey": "A-32-F", "addr:province": "Alicante", "addr:city": "Alcoi \/ Alcoy", "operator": "Jose Ramon Sastre Nogales", "addr:street": "Carrer de Sant Nicolau", "addr:housenumber": " 103", "addr:postcode": " 03801", "source": "Opendata Generalitat Valenciana", "amenity": "pharmacy", "lat": 38.6958879, "lon": -0.4731752 }, "geometry": { "type": "Point", "coordinates": [ -0.4731752, 38.6958879 ] } },
{ "type": "Feature", "properties": { "source:pkey": "A-359-F", "addr:province": "Alicante", "addr:city": "Alcoi \/ Alcoy", "operator": "Mª Angeles Carratala Beguer, Camille Jose Macaron ", "addr:street": "Carrer de Cami (el)", "addr:housenumber": " 58", "addr:postcode": " 03801", "source": "Opendata Generalitat Valenciana", "amenity": "pharmacy", "lat": 38.6223945, "lon": -0.7558169 }, "geometry": { "type": "Point", "coordinates": [ -0.7558169, 38.6223945 ] } },
{ "type": "Feature", "properties": { "source:pkey": "A-373-F", "addr:province": "Alicante", "addr:city": "Alcoi \/ Alcoy", "operator": "Emilio Aura Terol", "addr:street": "Avinguda de Hispanitat", "addr:housenumber": " 39", "addr:postcode": " 03804", "source": "Opendata Generalitat Valenciana", "amenity": "pharmacy", "lat": 38.7091464, "lon": -0.4632704 }, "geometry": { "type": "Point", "coordinates": [ -0.4632704, 38.7091464 ] } },
{ "type": "Feature", "properties": { "source:pkey": "A-415-F", "addr:province": "Alicante", "addr:city": "Alcoi \/ Alcoy", "operator": "Isabel Guill Herrero", "addr:street": "Carrer de Serrella", "addr:housenumber": " 2", "addr:postcode": " 03802", "source": "Opendata Generalitat Valenciana", "amenity": "pharmacy", "lat": 38.7052361, "lon": -0.6701449 }, "geometry": { "type": "Point", "coordinates": [ -0.6701449, 38.7052361 ] } },
{ "type": "Feature", "properties": { "source:pkey": "A-418-F", "addr:province": "Alicante", "addr:city": "Alcoi \/ Alcoy", "operator": "Juan Fernandez Geisser", "addr:street": "Carrer de Escultor Peresejo", "addr:housenumber": " 36", "addr:postcode": " 03803", "source": "Opendata Generalitat Valenciana", "amenity": "pharmacy", "lat": 38.7020127, "lon": -0.483122 }, "geometry": { "type": "Point", "coordinates": [ -0.483122, 38.7020127 ] } },
{ "type": "Feature", "properties": { "source:pkey": "A-429-F", "addr:province": "Alicante", "addr:city": "Alcoi \/ Alcoy", "operator": "Julian San Miguel Caffarena", "addr:street": "Carrer de Joan de Joanes", "addr:housenumber": " 9", "addr:postcode": " 03802", "source": "Opendata Generalitat Valenciana", "amenity": "pharmacy", "lat": 38.6942698, "lon": -0.4864423 }, "geometry": { "type": "Point", "coordinates": [ -0.4864423, 38.6942698 ] } },
{ "type": "Feature", "properties": { "source:pkey": "A-436-F", "addr:province": "Alicante", "addr:city": "Alcoi \/ Alcoy", "operator": "Elena Sainz Nadales", "addr:street": "Carrer de Escultor Ridaura", "addr:housenumber": " 4", "addr:postcode": " 03804", "source": "Opendata Generalitat Valenciana", "amenity": "pharmacy", "lat": 38.7042947, "lon": -0.4675809 }, "geometry": { "type": "Point", "coordinates": [ -0.4675809, 38.7042947 ] } },
{ "type": "Feature", "properties": { "source:pkey": "A-453-F", "addr:province": "Alicante", "addr:city": "Alcoi \/ Alcoy", "operator": "Joaquin Climent Oltra", "addr:street": "Carrer de Ferran el Catolic", "addr:housenumber": " 20", "addr:postcode": " 03804", "source": "Opendata Generalitat Valenciana", "amenity": "pharmacy", "lat": 38.7083987, "lon": -0.464357 }, "geometry": { "type": "Point", "coordinates": [ -0.464357, 38.7083987 ] } },
{ "type": "Feature", "properties": { "source:pkey": "A-486-F", "addr:province": "Alicante", "addr:city": "Alcoi \/ Alcoy", "operator": "Maria Amparo Tormo Company", "addr:street": "MUSICO CARBONELL", "addr:housenumber": " 5", "addr:postcode": " 03800", "source": "Opendata Generalitat Valenciana", "amenity": "pharmacy", "lat": 38.6241615, "lon": -0.5694266 }, "geometry": { "type": "Point", "coordinates": [ -0.5694266, 38.6241615 ] } },
{ "type": "Feature", "properties": { "source:pkey": "A-59-F", "addr:province": "Alicante", "addr:city": "Alcoi \/ Alcoy", "operator": "Maria Edelmira Corcoles Ferrandiz", "addr:street": "Carrer de Roger de Lluria", "addr:housenumber": " 5", "addr:postcode": " 03801", "source": "Opendata Generalitat Valenciana", "amenity": "pharmacy", "lat": 38.6959424, "lon": -0.4754212 }, "geometry": { "type": "Point", "coordinates": [ -0.4754212, 38.6959424 ] } },
{ "type": "Feature", "properties": { "source:pkey": "A-626-F", "addr:province": "Alicante", "addr:city": "Alcoi \/ Alcoy", "operator": "Rosa Frances Samper", "addr:street": "Carrer de VALENCIA", "addr:housenumber": " 21", "addr:postcode": " 03804", "source": "Opendata Generalitat Valenciana", "amenity": "pharmacy", "lat": 38.6938544, "lon": -0.4876564 }, "geometry": { "type": "Point", "coordinates": [ -0.4876564, 38.6938544 ] } },
{ "type": "Feature", "properties": { "source:pkey": "A-65-F", "addr:province": "Alicante", "addr:city": "Alcoi \/ Alcoy", "operator": "Maria Duart Bosch", "addr:street": "Carrer de Sabadell", "addr:housenumber": " 10", "addr:postcode": " 03804", "source": "Opendata Generalitat Valenciana", "amenity": "pharmacy", "lat": 38.5406321, "lon": -0.5059295 }, "geometry": { "type": "Point", "coordinates": [ -0.5059295, 38.5406321 ] } },
{ "type": "Feature", "properties": { "source:pkey": "A-712-F", "addr:province": "Alicante", "addr:city": "Alcoi \/ Alcoy", "operator": "Paloma Jorda Sempere", "addr:street": "Polígon de OVIDI MONTLLOR", "addr:housenumber": " 24", "addr:postcode": " 03801", "source": "Opendata Generalitat Valenciana", "amenity": "pharmacy", "lat": 38.69659045, "lon": -0.4675817911360749 }, "geometry": { "type": "Point", "coordinates": [ -0.467581791136075, 38.69659045 ] } },
{ "type": "Feature", "properties": { "source:pkey": "A-71-F", "addr:province": "Alicante", "addr:city": "Alcoi \/ Alcoy", "operator": "Joaquin Gomez Sansaloni", "addr:street": "Carrer de Sant Nicolau", "addr:housenumber": " 5", "addr:postcode": " 03801", "source": "Opendata Generalitat Valenciana", "amenity": "pharmacy", "lat": 38.6958879, "lon": -0.4731752 }, "geometry": { "type": "Point", "coordinates": [ -0.4731752, 38.6958879 ] } },
{ "type": "Feature", "properties": { "source:pkey": "A-7-F", "addr:province": "Alicante", "addr:city": "Alcoi \/ Alcoy", "operator": "Jose Ramon De Orte Abad", "addr:street": "Avinguda de Carmen Vidal", "addr:housenumber": " ", "addr:postcode": " 03804", "source": "Opendata Generalitat Valenciana", "amenity": "pharmacy", "lat": 38.7087733, "lon": -0.4717049 }, "geometry": { "type": "Point", "coordinates": [ -0.4717049, 38.7087733 ] } },
{ "type": "Feature", "properties": { "source:pkey": "A-82-F", "addr:province": "Alicante", "addr:city": "Alcoi \/ Alcoy", "operator": "Manuel Gutierrez Miró", "addr:street": "Carrer de Sant Isidre", "addr:housenumber": " 18", "addr:postcode": " 03803", "source": "Opendata Generalitat Valenciana", "amenity": "pharmacy", "lat": 38.6990887, "lon": -0.4792678 }, "geometry": { "type": "Point", "coordinates": [ -0.4792678, 38.6990887 ] } },
{ "type": "Feature", "properties": { "source:pkey": "A-539-F", "addr:province": "Alicante", "addr:city": "Alfafara", "operator": "Mª Isabel Rufete Saez", "addr:street": "Avinguda de Generalitat Valenciana", "addr:housenumber": " 24", "addr:postcode": " 03838", "source": "Opendata Generalitat Valenciana", "amenity": "pharmacy", "lat": 38.7913857, "lon": -0.4720933 }, "geometry": { "type": "Point", "coordinates": [ -0.4720933, 38.7913857 ] } },
{ "type": "Feature", "properties": { "source:pkey": "A-290-F", "addr:province": "Alicante", "addr:city": "L'Alfàs Del Pi", "operator": "Miguel Angel Criado Fuster", "addr:street": "Carrer de Ferreria (la)", "addr:housenumber": " 19", "addr:postcode": " 03580", "source": "Opendata Generalitat Valenciana", "amenity": "pharmacy", "lat": 38.5736623, "lon": -0.0996047 }, "geometry": { "type": "Point", "coordinates": [ -0.0996047, 38.5736623 ] } },
{ "type": "Feature", "properties": { "source:pkey": "A-350-F", "addr:province": "Alicante", "addr:city": "L'Alfàs Del Pi", "operator": "María Natividad Llorca Mayor", "addr:street": "Carrer de Pau Casals", "addr:housenumber": " 5", "addr:postcode": " 03581", "source": "Opendata Generalitat Valenciana", "amenity": "pharmacy", "lat": 38.5755647, "lon": -0.0653388 }, "geometry": { "type": "Point", "coordinates": [ -0.0653388, 38.5755647 ] } },
{ "type": "Feature", "properties": { "source:pkey": "A-480-F", "addr:province": "Alicante", "addr:city": "L'Alfàs Del Pi", "operator": "Marina Criado Fuster", "addr:street": "Avinguda de Albir (lÂ´)", "addr:housenumber": " 44", "addr:postcode": " 03581", "source": "Opendata Generalitat Valenciana", "amenity": "pharmacy", "lat": 38.5794047, "lon": -0.0734787 }, "geometry": { "type": "Point", "coordinates": [ -0.0734787, 38.5794047 ] } },
{ "type": "Feature", "properties": { "source:pkey": "A-669-F", "addr:province": "Alicante", "addr:city": "L'Alfàs Del Pi", "operator": "Rosa Francisca Buades Gomis", "addr:street": "Carrer de Federico Garcia Lorca", "addr:housenumber": " 19", "addr:postcode": " 03580", "source": "Opendata Generalitat Valenciana", "amenity": "pharmacy", "lat": 38.5791837, "lon": -0.1017065 }, "geometry": { "type": "Point", "coordinates": [ -0.1017065, 38.5791837 ] } },
{ "type": "Feature", "properties": { "source:pkey": "A-749-F", "addr:province": "Alicante", "addr:city": "L'Alfàs Del Pi", "operator": "Marta Mayor Segrelles", "addr:street": "CAMI VELL DE ALTEA S\/N", "addr:housenumber": " EDIFICIO ALBIR CENTER", "addr:postcode": " LOCAL 2 (PLAYA DEL ALBIR), , 03580", "source": "Opendata Generalitat Valenciana", "amenity": "pharmacy", "lat": 38.5677682, "lon": -0.0627424 }, "geometry": { "type": "Point", "coordinates": [ -0.0627424, 38.5677682 ] } },
{ "type": "Feature", "properties": { "source:pkey": "A-767-F", "addr:province": "Alicante", "addr:city": "L'Alfàs Del Pi", "operator": "Mª Eugenia Garcia Zaragoza", "addr:street": "Avinguda de Pais Valencia", "addr:housenumber": " 38", "addr:postcode": " 03580", "source": "Opendata Generalitat Valenciana", "amenity": "pharmacy", "lat": 38.5775316, "lon": -0.1020581 }, "geometry": { "type": "Point", "coordinates": [ -0.1020581, 38.5775316 ] } },
{ "type": "Feature", "properties": { "source:pkey": "A-835-F", "addr:province": "Alicante", "addr:city": "L'Alfàs Del Pi", "operator": "Ana Maria Bartolome Gisbert", "addr:street": "Carrer de Bulevard dels Musics", "addr:housenumber": " 18", "addr:postcode": " 03581", "source": "Opendata Generalitat Valenciana", "amenity": "pharmacy", "lat": 38.5740143, "lon": -0.0660477 }, "geometry": { "type": "Point", "coordinates": [ -0.0660477, 38.5740143 ] } },
{ "type": "Feature", "properties": { "source:pkey": "A-435-F", "addr:province": "Alicante", "addr:city": "Algorfa", "operator": "Juan Manuel Medina Muñoz", "addr:street": "Avinguda de Maria del Mar Rodriguez", "addr:housenumber": " 32", "addr:postcode": " 03169", "source": "Opendata Generalitat Valenciana", "amenity": "pharmacy", "lat": 38.0872214, "lon": -0.7984218 }, "geometry": { "type": "Point", "coordinates": [ -0.7984218, 38.0872214 ] } },
{ "type": "Feature", "properties": { "source:pkey": "A-209-F", "addr:province": "Alicante", "addr:city": "Algueña", "operator": "Rosa Mª Tortosa Boj", "addr:street": "Avinguda de Constitucion (la)", "addr:housenumber": " 13", "addr:postcode": " 03668", "source": "Opendata Generalitat Valenciana", "amenity": "pharmacy", "lat": 38.56185565, "lon": -0.26382948484040714 }, "geometry": { "type": "Point", "coordinates": [ -0.263829484840407, 38.56185565 ] } },
{ "type": "Feature", "properties": { "source:pkey": "A-105-F", "addr:province": "Alicante", "addr:city": "Alacant \/ Alicante", "operator": "Carmen Santamaria Moreno", "addr:street": "PLAZA Constitucion", "addr:housenumber": " 3", "addr:postcode": " 03112", "source": "Opendata Generalitat Valenciana", "amenity": "pharmacy", "lat": 38.53849095, "lon": -0.81738750371552382 }, "geometry": { "type": "Point", "coordinates": [ -0.817387503715524, 38.53849095 ] } },
{ "type": "Feature", "properties": { "source:pkey": "A-108-F", "addr:province": "Alicante", "addr:city": "Alacant \/ Alicante", "operator": "Concepcion Canales Mira", "addr:street": "Carrer de General Lacy", "addr:housenumber": " 12", "addr:postcode": " 03003", "source": "Opendata Generalitat Valenciana", "amenity": "pharmacy", "lat": 38.0864168, "lon": -0.6491461 }, "geometry": { "type": "Point", "coordinates": [ -0.6491461, 38.0864168 ] } },
{ "type": "Feature", "properties": { "source:pkey": "A-109-F", "addr:province": "Alicante", "addr:city": "Alacant \/ Alicante", "operator": "Alejandro Garcia-Noblejas Julia", "addr:street": "Avinguda de BENITO PEREZ GALDOS", "addr:housenumber": " 19", "addr:postcode": " 03004", "source": "Opendata Generalitat Valenciana", "amenity": "pharmacy", "lat": 38.0740687, "lon": -0.7403849 }, "geometry": { "type": "Point", "coordinates": [ -0.7403849, 38.0740687 ] } },
{ "type": "Feature", "properties": { "source:pkey": "A-115-F", "addr:province": "Alicante", "addr:city": "Alacant \/ Alicante", "operator": "Maria Dolores Rodriguez Estella", "addr:street": "Avinguda de Alcoy", "addr:housenumber": " 10", "addr:postcode": " 03010", "source": "Opendata Generalitat Valenciana", "amenity": "pharmacy", "lat": 38.5358366, "lon": -0.1219299 }, "geometry": { "type": "Point", "coordinates": [ -0.1219299, 38.5358366 ] } },
{ "type": "Feature", "properties": { "source:pkey": "A-116-F", "addr:province": "Alicante", "addr:city": "Alacant \/ Alicante", "operator": "Maria Joaquina Barquero Ortiz", "addr:street": "Avinguda de Aguilera", "addr:housenumber": " 44", "addr:postcode": " 03006", "source": "Opendata Generalitat Valenciana", "amenity": "pharmacy", "lat": 38.6086591, "lon": -0.4211392 }, "geometry": { "type": "Point", "coordinates": [ -0.4211392, 38.6086591 ] } },
{ "type": "Feature", "properties": { "source:pkey": "A-117-F", "addr:province": "Alicante", "addr:city": "Alacant \/ Alicante", "operator": "Fe Maria Ballestero Ferrer, Arantzazu Grediaga Ballestero", "addr:street": "Carrer de Maruja Pastor", "addr:housenumber": " 7", "addr:postcode": " 03540", "source": "Opendata Generalitat Valenciana", "amenity": "pharmacy", "lat": 38.3679878, "lon": -0.4288342 }, "geometry": { "type": "Point", "coordinates": [ -0.4288342, 38.3679878 ] } },
{ "type": "Feature", "properties": { "source:pkey": "A-119-F", "addr:province": "Alicante", "addr:city": "Alacant \/ Alicante", "operator": "Mª Dolores Lloret Luna", "addr:street": "Avinguda de Historiador Vicente Ramos", "addr:housenumber": " 28", "addr:postcode": " 03540", "source": "Opendata Generalitat Valenciana", "amenity": "pharmacy", "lat": 38.3676187, "lon": -0.4252797 }, "geometry": { "type": "Point", "coordinates": [ -0.4252797, 38.3676187 ] } },
{ "type": "Feature", "properties": { "source:pkey": "A-120-F", "addr:province": "Alicante", "addr:city": "Alacant \/ Alicante", "operator": "Monserrat Bovet Lopez, Francisco Garcia Lacal", "addr:street": "Carrer de Reyes Catolicos", "addr:housenumber": " 33", "addr:postcode": " 03003", "source": "Opendata Generalitat Valenciana", "amenity": "pharmacy", "lat": 38.5922122, "lon": -0.6693285 }, "geometry": { "type": "Point", "coordinates": [ -0.6693285, 38.5922122 ] } },
{ "type": "Feature", "properties": { "source:pkey": "A-121-F", "addr:province": "Alicante", "addr:city": "Alacant \/ Alicante", "operator": "Susana Vicente Martinez", "addr:street": "PLAZA Pio XII", "addr:housenumber": " 7", "addr:postcode": " 03013", "source": "Opendata Generalitat Valenciana", "amenity": "pharmacy", "lat": 38.3813415, "lon": -0.76813178583194341 }, "geometry": { "type": "Point", "coordinates": [ -0.768131785831943, 38.3813415 ] } },
{ "type": "Feature", "properties": { "source:pkey": "A-124-F", "addr:province": "Alicante", "addr:city": "Alacant \/ Alicante", "operator": "Tomas Lloret Sanchez", "addr:street": "Avinguda de General Marva", "addr:housenumber": " 10", "addr:postcode": " 03004", "source": "Opendata Generalitat Valenciana", "amenity": "pharmacy", "lat": 38.5410567, "lon": -0.1352106 }, "geometry": { "type": "Point", "coordinates": [ -0.1352106, 38.5410567 ] } },
{ "type": "Feature", "properties": { "source:pkey": "A-125-F", "addr:province": "Alicante", "addr:city": "Alacant \/ Alicante", "operator": "Maria Gracia Rodes Lloret", "addr:street": "PLAZA DIVISION AZUL", "addr:housenumber": " 3", "addr:postcode": " 03008", "source": "Opendata Generalitat Valenciana", "amenity": "pharmacy", "lat": 38.3687488, "lon": -0.4105808 }, "geometry": { "type": "Point", "coordinates": [ -0.4105808, 38.3687488 ] } },
{ "type": "Feature", "properties": { "source:pkey": "A-127-F", "addr:province": "Alicante", "addr:city": "Alacant \/ Alicante", "operator": "Jose Ramon Berna Carbonell, Maria Jesus Quiles Llorens", "addr:street": "Carrer de Gerona", "addr:housenumber": " 1A", "addr:postcode": " 03001", "source": "Opendata Generalitat Valenciana", "amenity": "pharmacy", "lat": 38.5381164, "lon": -0.1233708 }, "geometry": { "type": "Point", "coordinates": [ -0.1233708, 38.5381164 ] } },
{ "type": "Feature", "properties": { "source:pkey": "A-128-F", "addr:province": "Alicante", "addr:city": "Alacant \/ Alicante", "operator": "Iñaki Malluguiza Calvo", "addr:street": "Avinguda de Alfonso el Sabio", "addr:housenumber": " 13", "addr:postcode": " 03001", "source": "Opendata Generalitat Valenciana", "amenity": "pharmacy", "lat": 38.0899255, "lon": -0.7237522 }, "geometry": { "type": "Point", "coordinates": [ -0.7237522, 38.0899255 ] } },
{ "type": "Feature", "properties": { "source:pkey": "A-12-F", "addr:province": "Alicante", "addr:city": "Alacant \/ Alicante", "operator": "Milagros Lopez Martinez", "addr:street": "Avinguda de ALCOY", "addr:housenumber": " 90", "addr:postcode": " 03009", "source": "Opendata Generalitat Valenciana", "amenity": "pharmacy", "lat": 38.5358366, "lon": -0.1219299 }, "geometry": { "type": "Point", "coordinates": [ -0.1219299, 38.5358366 ] } },
{ "type": "Feature", "properties": { "source:pkey": "A-131-F", "addr:province": "Alicante", "addr:city": "Alacant \/ Alicante", "operator": "Mª Jesús Redondo Marín", "addr:street": "Carrer de Virgen del Socorro", "addr:housenumber": " 19", "addr:postcode": " 03002", "source": "Opendata Generalitat Valenciana", "amenity": "pharmacy", "lat": 38.3472624, "lon": -0.4763798 }, "geometry": { "type": "Point", "coordinates": [ -0.4763798, 38.3472624 ] } },
{ "type": "Feature", "properties": { "source:pkey": "A-135-F", "addr:province": "Alicante", "addr:city": "Alacant \/ Alicante", "operator": "Isabel Colmeiro Ayela", "addr:street": "Avinguda de Juan Bautista Lafora", "addr:housenumber": " 3", "addr:postcode": " 03002", "source": "Opendata Generalitat Valenciana", "amenity": "pharmacy", "lat": 38.3448172, "lon": -0.4798542 }, "geometry": { "type": "Point", "coordinates": [ -0.4798542, 38.3448172 ] } },
{ "type": "Feature", "properties": { "source:pkey": "A-137-F", "addr:province": "Alicante", "addr:city": "Alacant \/ Alicante", "operator": "Elena Llinares Camacho", "addr:street": "Carrer de Pedreguer", "addr:housenumber": " 10", "addr:postcode": " 03008", "source": "Opendata Generalitat Valenciana", "amenity": "pharmacy", "lat": 38.2603336, "lon": -0.7197671 }, "geometry": { "type": "Point", "coordinates": [ -0.7197671, 38.2603336 ] } },
{ "type": "Feature", "properties": { "source:pkey": "A-143-F", "addr:province": "Alicante", "addr:city": "Alacant \/ Alicante", "operator": "Luis Ortega Castro", "addr:street": "Carrer de Santa Felicitas", "addr:housenumber": " 7", "addr:postcode": " 03005", "source": "Opendata Generalitat Valenciana", "amenity": "pharmacy", "lat": 39.5887344, "lon": -0.3000079 }, "geometry": { "type": "Point", "coordinates": [ -0.3000079, 39.5887344 ] } },
{ "type": "Feature", "properties": { "source:pkey": "A-147-F", "addr:province": "Alicante", "addr:city": "Alacant \/ Alicante", "operator": "Anabel Albala Cano", "addr:street": "Avinguda de Deportista Miriam Blasco", "addr:housenumber": " 4", "addr:postcode": " 03540", "source": "Opendata Generalitat Valenciana", "amenity": "pharmacy", "lat": 38.3698218, "lon": -0.4358815 }, "geometry": { "type": "Point", "coordinates": [ -0.4358815, 38.3698218 ] } },
{ "type": "Feature", "properties": { "source:pkey": "A-152-F", "addr:province": "Alicante", "addr:city": "Alacant \/ Alicante", "operator": "Beatriz Peña Gonzalez", "addr:street": "Avinguda de DE LA CONSTITUCION", "addr:housenumber": " 9", "addr:postcode": " 03002", "source": "Opendata Generalitat Valenciana", "amenity": "pharmacy", "lat": 38.38711745, "lon": -0.49147242738071539 }, "geometry": { "type": "Point", "coordinates": [ -0.491472427380715, 38.38711745 ] } },
{ "type": "Feature", "properties": { "source:pkey": "A-153-F", "addr:province": "Alicante", "addr:city": "Alacant \/ Alicante", "operator": "Jose Carlos Rovira De Miguel, Juan Manuel Rovira De Miguel", "addr:street": "Avinguda de Aguilera", "addr:housenumber": " 19", "addr:postcode": " 03007", "source": "Opendata Generalitat Valenciana", "amenity": "pharmacy", "lat": 38.6086591, "lon": -0.4211392 }, "geometry": { "type": "Point", "coordinates": [ -0.4211392, 38.6086591 ] } },
{ "type": "Feature", "properties": { "source:pkey": "A-157-F", "addr:province": "Alicante", "addr:city": "Alacant \/ Alicante", "operator": "Francisco Jose Barbera Molina", "addr:street": "Avinguda de Jaime I", "addr:housenumber": " 8", "addr:postcode": " 03009", "source": "Opendata Generalitat Valenciana", "amenity": "pharmacy", "lat": 38.5420945, "lon": -0.1332298 }, "geometry": { "type": "Point", "coordinates": [ -0.1332298, 38.5420945 ] } },
{ "type": "Feature", "properties": { "source:pkey": "A-165-F", "addr:province": "Alicante", "addr:city": "Alacant \/ Alicante", "operator": "Maria Lahoz Beneytez", "addr:street": "Avinguda de Alfonso el Sabio", "addr:housenumber": " 18", "addr:postcode": " 03004", "source": "Opendata Generalitat Valenciana", "amenity": "pharmacy", "lat": 38.0899255, "lon": -0.7237522 }, "geometry": { "type": "Point", "coordinates": [ -0.7237522, 38.0899255 ] } },
{ "type": "Feature", "properties": { "source:pkey": "A-166-F", "addr:province": "Alicante", "addr:city": "Alacant \/ Alicante", "operator": "Marta  Franco Gimenez", "addr:street": "Avinguda de Deportista Isabel Fernandez", "addr:housenumber": " 2", "addr:postcode": " 03005", "source": "Opendata Generalitat Valenciana", "amenity": "pharmacy", "lat": 38.3567131, "lon": -0.5024775 }, "geometry": { "type": "Point", "coordinates": [ -0.5024775, 38.3567131 ] } },
{ "type": "Feature", "properties": { "source:pkey": "A-172-F", "addr:province": "Alicante", "addr:city": "Alacant \/ Alicante", "operator": "Ana Maria Cremades Sirvent", "addr:street": "Avinguda de Federico Soto", "addr:housenumber": " 24", "addr:postcode": " 03001", "source": "Opendata Generalitat Valenciana", "amenity": "pharmacy", "lat": 38.3431332, "lon": -0.4887593 }, "geometry": { "type": "Point", "coordinates": [ -0.4887593, 38.3431332 ] } },
{ "type": "Feature", "properties": { "source:pkey": "A-177-F", "addr:province": "Alicante", "addr:city": "Alacant \/ Alicante", "operator": "Maria Teresa Ortin Romero", "addr:street": "PLAZA Calvo Sotelo", "addr:housenumber": " 1", "addr:postcode": " 03001", "source": "Opendata Generalitat Valenciana", "amenity": "pharmacy", "lat": 38.3436063, "lon": -0.48818001239448738 }, "geometry": { "type": "Point", "coordinates": [ -0.488180012394487, 38.3436063 ] } },
{ "type": "Feature", "properties": { "source:pkey": "A-187-F", "addr:province": "Alicante", "addr:city": "Alacant \/ Alicante", "operator": "Mercedes Azpeteguia Sanjurjo", "addr:street": "Carrer de Teatro", "addr:housenumber": " 9", "addr:postcode": " 03001", "source": "Opendata Generalitat Valenciana", "amenity": "pharmacy", "lat": 38.0941759, "lon": -0.6565081 }, "geometry": { "type": "Point", "coordinates": [ -0.6565081, 38.0941759 ] } },
{ "type": "Feature", "properties": { "source:pkey": "A-193-F", "addr:province": "Alicante", "addr:city": "Alacant \/ Alicante", "operator": "Pascual Marti Rosillo", "addr:street": "Avinguda de Goleta", "addr:housenumber": " 7", "addr:postcode": " 03540", "source": "Opendata Generalitat Valenciana", "amenity": "pharmacy", "lat": 38.8375154, "lon": 0.103266 }, "geometry": { "type": "Point", "coordinates": [ 0.103266, 38.8375154 ] } },
{ "type": "Feature", "properties": { "source:pkey": "A-194-F", "addr:province": "Alicante", "addr:city": "Alacant \/ Alicante", "operator": "Jose Martinez Tamayo, Maria Jose Martinez Lucas", "addr:street": "Rambla de Mendez NuÃ±ez", "addr:housenumber": " 39", "addr:postcode": " 03002", "source": "Opendata Generalitat Valenciana", "amenity": "pharmacy", "lat": 38.3437269, "lon": -0.4828722 }, "geometry": { "type": "Point", "coordinates": [ -0.4828722, 38.3437269 ] } },
{ "type": "Feature", "properties": { "source:pkey": "A-195-F", "addr:province": "Alicante", "addr:city": "Alacant \/ Alicante", "operator": "Carlos Van Der Hofstadt Poyatos", "addr:street": "Carrer de Valencia", "addr:housenumber": " 1", "addr:postcode": " 03012", "source": "Opendata Generalitat Valenciana", "amenity": "pharmacy", "lat": 39.5887344, "lon": -0.3000079 }, "geometry": { "type": "Point", "coordinates": [ -0.3000079, 39.5887344 ] } },
{ "type": "Feature", "properties": { "source:pkey": "A-196-F", "addr:province": "Alicante", "addr:city": "Alacant \/ Alicante", "operator": "Juan Miguel Pol Yanguas", "addr:street": "Carrer de Padre Espla", "addr:housenumber": " 37", "addr:postcode": " 03013", "source": "Opendata Generalitat Valenciana", "amenity": "pharmacy", "lat": 38.0941759, "lon": -0.6565081 }, "geometry": { "type": "Point", "coordinates": [ -0.6565081, 38.0941759 ] } },
{ "type": "Feature", "properties": { "source:pkey": "A-207-F", "addr:province": "Alicante", "addr:city": "Alacant \/ Alicante", "operator": "Cristina Smets Soler", "addr:street": "Carrer de Peru", "addr:housenumber": " 14", "addr:postcode": " 03008", "source": "Opendata Generalitat Valenciana", "amenity": "pharmacy", "lat": 38.5434482, "lon": -0.1813527 }, "geometry": { "type": "Point", "coordinates": [ -0.1813527, 38.5434482 ] } },
{ "type": "Feature", "properties": { "source:pkey": "A-212-F", "addr:province": "Alicante", "addr:city": "Alacant \/ Alicante", "operator": "Francisco Plana Espasa", "addr:street": "Carrer de San Carlos", "addr:housenumber": " 67", "addr:postcode": " 03012", "source": "Opendata Generalitat Valenciana", "amenity": "pharmacy", "lat": 38.1372846, "lon": -0.9313177 }, "geometry": { "type": "Point", "coordinates": [ -0.9313177, 38.1372846 ] } },
{ "type": "Feature", "properties": { "source:pkey": "A-213-F", "addr:province": "Alicante", "addr:city": "Alacant \/ Alicante", "operator": "Mª Teresa Tendero Rius", "addr:street": "Carrer de Maestro Alonso", "addr:housenumber": " 156", "addr:postcode": " 03012", "source": "Opendata Generalitat Valenciana", "amenity": "pharmacy", "lat": 38.789968, "lon": 0.1670583 }, "geometry": { "type": "Point", "coordinates": [ 0.1670583, 38.789968 ] } },
{ "type": "Feature", "properties": { "source:pkey": "A-214-F", "addr:province": "Alicante", "addr:city": "Alacant \/ Alicante", "operator": "Sergio Rigual Bonastre", "addr:street": "Carrer de Italia", "addr:housenumber": " 23", "addr:postcode": " 03003", "source": "Opendata Generalitat Valenciana", "amenity": "pharmacy", "lat": 38.0642334, "lon": -0.6525883 }, "geometry": { "type": "Point", "coordinates": [ -0.6525883, 38.0642334 ] } },
{ "type": "Feature", "properties": { "source:pkey": "A-217-F", "addr:province": "Alicante", "addr:city": "Alacant \/ Alicante", "operator": "Josefina Rodriguez Clavel", "addr:street": "Avinguda de ESTACION", "addr:housenumber": " 20", "addr:postcode": " 03005", "source": "Opendata Generalitat Valenciana", "amenity": "pharmacy", "lat": 38.6454964, "lon": 0.0356867 }, "geometry": { "type": "Point", "coordinates": [ 0.0356867, 38.6454964 ] } },
{ "type": "Feature", "properties": { "source:pkey": "A-219-F", "addr:province": "Alicante", "addr:city": "Alacant \/ Alicante", "operator": "Mª Jose Samper Gilabert", "addr:street": "Carrer de Rafael Altamira", "addr:housenumber": " 1", "addr:postcode": " 03002", "source": "Opendata Generalitat Valenciana", "amenity": "pharmacy", "lat": 38.2709941, "lon": -0.7151952 }, "geometry": { "type": "Point", "coordinates": [ -0.7151952, 38.2709941 ] } },
{ "type": "Feature", "properties": { "source:pkey": "A-21-F", "addr:province": "Alicante", "addr:city": "Alacant \/ Alicante", "operator": "Marta Lopez-Melida Bolufer", "addr:street": "Avinguda de Goleta", "addr:housenumber": " 25", "addr:postcode": " 03540", "source": "Opendata Generalitat Valenciana", "amenity": "pharmacy", "lat": 38.8375154, "lon": 0.103266 }, "geometry": { "type": "Point", "coordinates": [ 0.103266, 38.8375154 ] } },
{ "type": "Feature", "properties": { "source:pkey": "A-236-F", "addr:province": "Alicante", "addr:city": "Alacant \/ Alicante", "operator": "Celia Luz Ruiz", "addr:street": "Carrer de Mayor", "addr:housenumber": " 29", "addr:postcode": " 03002", "source": "Opendata Generalitat Valenciana", "amenity": "pharmacy", "lat": 38.5049118, "lon": -0.2331071 }, "geometry": { "type": "Point", "coordinates": [ -0.2331071, 38.5049118 ] } },
{ "type": "Feature", "properties": { "source:pkey": "A-237-F", "addr:province": "Alicante", "addr:city": "Alacant \/ Alicante", "operator": "Mª Encarnación Torregrosa Brotons", "addr:street": "Carrer de Doctora Matilde Perez Jover", "addr:housenumber": " 1", "addr:postcode": " 03005", "source": "Opendata Generalitat Valenciana", "amenity": "pharmacy", "lat": 38.3507737, "lon": -0.5083491 }, "geometry": { "type": "Point", "coordinates": [ -0.5083491, 38.3507737 ] } },
{ "type": "Feature", "properties": { "source:pkey": "A-242-F", "addr:province": "Alicante", "addr:city": "Alacant \/ Alicante", "operator": "Maria Amparo Server Ortola", "addr:street": "Avinguda de ORIHUELA", "addr:housenumber": " 106", "addr:postcode": " 03006", "source": "Opendata Generalitat Valenciana", "amenity": "pharmacy", "lat": 38.0906911, "lon": -0.946613 }, "geometry": { "type": "Point", "coordinates": [ -0.946613, 38.0906911 ] } },
{ "type": "Feature", "properties": { "source:pkey": "A-248-F", "addr:province": "Alicante", "addr:city": "Alacant \/ Alicante", "operator": "J. Fernando Toledano Ivorra, Alejandro Toledano Ivorra", "addr:street": "Carrer de San Mateo", "addr:housenumber": " 24", "addr:postcode": " 03013", "source": "Opendata Generalitat Valenciana", "amenity": "pharmacy", "lat": 38.1325458, "lon": -0.6780061 }, "geometry": { "type": "Point", "coordinates": [ -0.6780061, 38.1325458 ] } },
{ "type": "Feature", "properties": { "source:pkey": "A-252-F", "addr:province": "Alicante", "addr:city": "Alacant \/ Alicante", "operator": "Maria Luz Maria Gosalbez", "addr:street": "DIPUTADO ANTONIO GARCIA MIRALLES", "addr:housenumber": " ", "addr:postcode": " 03014", "source": "Opendata Generalitat Valenciana", "amenity": "pharmacy", "lat": 38.3694911, "lon": -0.4721081 }, "geometry": { "type": "Point", "coordinates": [ -0.4721081, 38.3694911 ] } },
{ "type": "Feature", "properties": { "source:pkey": "A-253-F", "addr:province": "Alicante", "addr:city": "Alacant \/ Alicante", "operator": "Eduardo Luis Trives Lombardero", "addr:street": "Carrer de Calderon de la Barca", "addr:housenumber": " 8", "addr:postcode": " 03004", "source": "Opendata Generalitat Valenciana", "amenity": "pharmacy", "lat": 38.6993856, "lon": -0.3878765 }, "geometry": { "type": "Point", "coordinates": [ -0.3878765, 38.6993856 ] } },
{ "type": "Feature", "properties": { "source:pkey": "A-25-F", "addr:province": "Alicante", "addr:city": "Alacant \/ Alicante", "operator": "Elena Calatayud Calpena", "addr:street": "Carrer de Pardo Jimeno", "addr:housenumber": " 22", "addr:postcode": " 03007", "source": "Opendata Generalitat Valenciana", "amenity": "pharmacy", "lat": 38.3420358, "lon": -0.5059216 }, "geometry": { "type": "Point", "coordinates": [ -0.5059216, 38.3420358 ] } },
{ "type": "Feature", "properties": { "source:pkey": "A-261-F", "addr:province": "Alicante", "addr:city": "Alacant \/ Alicante", "operator": "Alberto Jimenez Buendia, Encarnacion Ribera Perez", "addr:street": "Carrer de Foglietti", "addr:housenumber": " 38", "addr:postcode": " 03007", "source": "Opendata Generalitat Valenciana", "amenity": "pharmacy", "lat": 38.0941759, "lon": -0.6565081 }, "geometry": { "type": "Point", "coordinates": [ -0.6565081, 38.0941759 ] } },
{ "type": "Feature", "properties": { "source:pkey": "A-263-F", "addr:province": "Alicante", "addr:city": "Alacant \/ Alicante", "operator": "Eulogio Taverner Torrent", "addr:street": "Avinguda de Novelda", "addr:housenumber": " 83", "addr:postcode": " 03009", "source": "Opendata Generalitat Valenciana", "amenity": "pharmacy", "lat": 38.3621325, "lon": -0.4930046 }, "geometry": { "type": "Point", "coordinates": [ -0.4930046, 38.3621325 ] } },
{ "type": "Feature", "properties": { "source:pkey": "A-276-F", "addr:province": "Alicante", "addr:city": "Alacant \/ Alicante", "operator": "Enrique Trives Prada", "addr:street": "Carrer de Foguerer", "addr:housenumber": " 2", "addr:postcode": " 03012", "source": "Opendata Generalitat Valenciana", "amenity": "pharmacy", "lat": 38.3681769, "lon": -0.4705507 }, "geometry": { "type": "Point", "coordinates": [ -0.4705507, 38.3681769 ] } },
{ "type": "Feature", "properties": { "source:pkey": "A-282-F", "addr:province": "Alicante", "addr:city": "Alacant \/ Alicante", "operator": "Javier T. Casares Benlloch", "addr:street": "Carrer de Maestro Luis Torregrosa", "addr:housenumber": " 9", "addr:postcode": " 03013", "source": "Opendata Generalitat Valenciana", "amenity": "pharmacy", "lat": 38.4348366, "lon": -0.8467319 }, "geometry": { "type": "Point", "coordinates": [ -0.8467319, 38.4348366 ] } },
{ "type": "Feature", "properties": { "source:pkey": "A-292-F", "addr:province": "Alicante", "addr:city": "Alacant \/ Alicante", "operator": "Luis Martinez Pedauye", "addr:street": "Avinguda de Condomina", "addr:housenumber": " 36", "addr:postcode": " 03540", "source": "Opendata Generalitat Valenciana", "amenity": "pharmacy", "lat": 38.6086591, "lon": -0.4211392 }, "geometry": { "type": "Point", "coordinates": [ -0.4211392, 38.6086591 ] } },
{ "type": "Feature", "properties": { "source:pkey": "A-297-F", "addr:province": "Alicante", "addr:city": "Alacant \/ Alicante", "operator": "Alejandro Dormido Garrosa", "addr:street": "Carrer de Jose Garcia Selles", "addr:housenumber": " 1", "addr:postcode": " 03015", "source": "Opendata Generalitat Valenciana", "amenity": "pharmacy", "lat": 38.3668818, "lon": -0.4698541 }, "geometry": { "type": "Point", "coordinates": [ -0.4698541, 38.3668818 ] } },
{ "type": "Feature", "properties": { "source:pkey": "A-2-F", "addr:province": "Alicante", "addr:city": "Alacant \/ Alicante", "operator": "Begoña Martinez Alarcon", "addr:street": "Avinguda de Alfonso el Sabio", "addr:housenumber": " 4", "addr:postcode": " 03004", "source": "Opendata Generalitat Valenciana", "amenity": "pharmacy", "lat": 38.0899255, "lon": -0.7237522 }, "geometry": { "type": "Point", "coordinates": [ -0.7237522, 38.0899255 ] } },
{ "type": "Feature", "properties": { "source:pkey": "A-302-F", "addr:province": "Alicante", "addr:city": "Alacant \/ Alicante", "operator": "Cristina Casares Benlloch", "addr:street": "Carrer de Arzobispo Loaces", "addr:housenumber": " 8", "addr:postcode": " 03003", "source": "Opendata Generalitat Valenciana", "amenity": "pharmacy", "lat": 38.3407676, "lon": -0.4892517 }, "geometry": { "type": "Point", "coordinates": [ -0.4892517, 38.3407676 ] } },
{ "type": "Feature", "properties": { "source:pkey": "A-305-F", "addr:province": "Alicante", "addr:city": "Alacant \/ Alicante", "operator": "Blanca R. Barbero Millan", "addr:street": "Carrer de Doctor Sapena", "addr:housenumber": " 26", "addr:postcode": " 03013", "source": "Opendata Generalitat Valenciana", "amenity": "pharmacy", "lat": 38.2620237, "lon": -0.707893 }, "geometry": { "type": "Point", "coordinates": [ -0.707893, 38.2620237 ] } },
{ "type": "Feature", "properties": { "source:pkey": "A-308-F", "addr:province": "Alicante", "addr:city": "Alacant \/ Alicante", "operator": "Juan Antonio Martinez Galipienso", "addr:street": "Carrer de Olivino", "addr:housenumber": " 6", "addr:postcode": " 03014", "source": "Opendata Generalitat Valenciana", "amenity": "pharmacy", "lat": 38.0941759, "lon": -0.6565081 }, "geometry": { "type": "Point", "coordinates": [ -0.6565081, 38.0941759 ] } },
{ "type": "Feature", "properties": { "source:pkey": "A-312-F", "addr:province": "Alicante", "addr:city": "Alacant \/ Alicante", "operator": "Mª Jose Hidalgo Navarro", "addr:street": "Avinguda de Historiador Vicente Ramos", "addr:housenumber": " B1Z", "addr:postcode": " 03540", "source": "Opendata Generalitat Valenciana", "amenity": "pharmacy", "lat": 38.3676187, "lon": -0.4252797 }, "geometry": { "type": "Point", "coordinates": [ -0.4252797, 38.3676187 ] } },
{ "type": "Feature", "properties": { "source:pkey": "A-318-F", "addr:province": "Alicante", "addr:city": "Alacant \/ Alicante", "operator": "Mª Carmen Pajares Gutierrez, David Jose Lloret Pajares", "addr:street": "Carrer de Garcia Andreu", "addr:housenumber": " 44", "addr:postcode": " 03007", "source": "Opendata Generalitat Valenciana", "amenity": "pharmacy", "lat": 38.5392097, "lon": -0.1336054 }, "geometry": { "type": "Point", "coordinates": [ -0.1336054, 38.5392097 ] } },
{ "type": "Feature", "properties": { "source:pkey": "A-31-F", "addr:province": "Alicante", "addr:city": "Alacant \/ Alicante", "operator": "Jose Miguel Ruiz Fernandez", "addr:street": "PLAZA Calvo Sotelo", "addr:housenumber": " 9", "addr:postcode": " 03003", "source": "Opendata Generalitat Valenciana", "amenity": "pharmacy", "lat": 38.3436063, "lon": -0.48818001239448738 }, "geometry": { "type": "Point", "coordinates": [ -0.488180012394487, 38.3436063 ] } },
{ "type": "Feature", "properties": { "source:pkey": "A-320-F", "addr:province": "Alicante", "addr:city": "Alacant \/ Alicante", "operator": "Laura Perez Martinez", "addr:street": "Carrer de Rosalia de Castro", "addr:housenumber": " 6", "addr:postcode": " 03010", "source": "Opendata Generalitat Valenciana", "amenity": "pharmacy", "lat": 38.0583172, "lon": -0.8990324 }, "geometry": { "type": "Point", "coordinates": [ -0.8990324, 38.0583172 ] } },
{ "type": "Feature", "properties": { "source:pkey": "A-322-F", "addr:province": "Alicante", "addr:city": "Alacant \/ Alicante", "operator": "Maria Luisa Ponce De Leon Del Bello", "addr:street": "Carrer de Orense", "addr:housenumber": " 2", "addr:postcode": " 03003", "source": "Opendata Generalitat Valenciana", "amenity": "pharmacy", "lat": 38.0941759, "lon": -0.6565081 }, "geometry": { "type": "Point", "coordinates": [ -0.6565081, 38.0941759 ] } },
{ "type": "Feature", "properties": { "source:pkey": "A-324-F", "addr:province": "Alicante", "addr:city": "Alacant \/ Alicante", "operator": "Cristina Yolanda Gonzalez Sanchez", "addr:street": "Carrer de Inmaculada del Pla", "addr:housenumber": " 12", "addr:postcode": " 03013", "source": "Opendata Generalitat Valenciana", "amenity": "pharmacy", "lat": 38.35867335, "lon": -0.47326086129246192 }, "geometry": { "type": "Point", "coordinates": [ -0.473260861292462, 38.35867335 ] } },
{ "type": "Feature", "properties": { "source:pkey": "A-327-F", "addr:province": "Alicante", "addr:city": "Alacant \/ Alicante", "operator": "Maria Inmaculada Ubieta Torres", "addr:street": "PLAZA ARGEL", "addr:housenumber": " 3", "addr:postcode": " 03011", "source": "Opendata Generalitat Valenciana", "amenity": "pharmacy", "lat": 38.3743276, "lon": -0.49145033493826984 }, "geometry": { "type": "Point", "coordinates": [ -0.49145033493827, 38.3743276 ] } },
{ "type": "Feature", "properties": { "source:pkey": "A-329-F", "addr:province": "Alicante", "addr:city": "Alacant \/ Alicante", "operator": "Alfonso Pablo Moreno De Arcos Mora", "addr:street": "Carrer de Poeta Garcilaso", "addr:housenumber": " 6", "addr:postcode": " 03005", "source": "Opendata Generalitat Valenciana", "amenity": "pharmacy", "lat": 38.7866046, "lon": 0.1711309 }, "geometry": { "type": "Point", "coordinates": [ 0.1711309, 38.7866046 ] } },
{ "type": "Feature", "properties": { "source:pkey": "A-331-F", "addr:province": "Alicante", "addr:city": "Alacant \/ Alicante", "operator": "Maria Dolores Botella Ballesteros", "addr:street": "Carrer de Gorga", "addr:housenumber": " 9", "addr:postcode": " 03014", "source": "Opendata Generalitat Valenciana", "amenity": "pharmacy", "lat": 38.7441185, "lon": -0.437331 }, "geometry": { "type": "Point", "coordinates": [ -0.437331, 38.7441185 ] } },
{ "type": "Feature", "properties": { "source:pkey": "A-332-F", "addr:province": "Alicante", "addr:city": "Alacant \/ Alicante", "operator": "Juan Fernandez De Palencia Gregorio", "addr:street": "Carrer de Mexico", "addr:housenumber": " 27", "addr:postcode": " 03008", "source": "Opendata Generalitat Valenciana", "amenity": "pharmacy", "lat": 38.0941759, "lon": -0.6565081 }, "geometry": { "type": "Point", "coordinates": [ -0.6565081, 38.0941759 ] } },
{ "type": "Feature", "properties": { "source:pkey": "A-333-F", "addr:province": "Alicante", "addr:city": "Alacant \/ Alicante", "operator": "Maria De Los Angeles Garcia Torrent", "addr:street": "Avinguda de Pintor Xavier Soler", "addr:housenumber": " 13", "addr:postcode": " 03015", "source": "Opendata Generalitat Valenciana", "amenity": "pharmacy", "lat": 38.3627428, "lon": -0.4670069 }, "geometry": { "type": "Point", "coordinates": [ -0.4670069, 38.3627428 ] } },
{ "type": "Feature", "properties": { "source:pkey": "A-344-F", "addr:province": "Alicante", "addr:city": "Alacant \/ Alicante", "operator": "Raquel  Garcia  Escolano", "addr:street": "Carrer de Cruz del Sur", "addr:housenumber": " 45", "addr:postcode": " 03006", "source": "Opendata Generalitat Valenciana", "amenity": "pharmacy", "lat": 38.8235387, "lon": -0.0295133 }, "geometry": { "type": "Point", "coordinates": [ -0.0295133, 38.8235387 ] } },
{ "type": "Feature", "properties": { "source:pkey": "A-346-F", "addr:province": "Alicante", "addr:city": "Alacant \/ Alicante", "operator": "Francisca Uris Selles", "addr:street": "Carrer de Los Montesinos", "addr:housenumber": " 7", "addr:postcode": " 03015", "source": "Opendata Generalitat Valenciana", "amenity": "pharmacy", "lat": 38.0622743, "lon": -0.6574093 }, "geometry": { "type": "Point", "coordinates": [ -0.6574093, 38.0622743 ] } },
{ "type": "Feature", "properties": { "source:pkey": "A-348-F", "addr:province": "Alicante", "addr:city": "Alacant \/ Alicante", "operator": "Maria José Costa Ballester", "addr:street": "Avinguda de PINTOR BAEZA", "addr:housenumber": " 8", "addr:postcode": " 03010", "source": "Opendata Generalitat Valenciana", "amenity": "pharmacy", "lat": 37.9877797, "lon": -0.8682896 }, "geometry": { "type": "Point", "coordinates": [ -0.8682896, 37.9877797 ] } },
{ "type": "Feature", "properties": { "source:pkey": "A-34-F", "addr:province": "Alicante", "addr:city": "Alacant \/ Alicante", "operator": "Mª Carmen Fuentes Sirvent, Mª Consolacion Fuentes Sirvent", "addr:street": "Carrer de Sevilla", "addr:housenumber": " 99", "addr:postcode": " 03012", "source": "Opendata Generalitat Valenciana", "amenity": "pharmacy", "lat": 38.0941759, "lon": -0.6565081 }, "geometry": { "type": "Point", "coordinates": [ -0.6565081, 38.0941759 ] } },
{ "type": "Feature", "properties": { "source:pkey": "A-352-F", "addr:province": "Alicante", "addr:city": "Alacant \/ Alicante", "operator": "Mª Luisa Peiro Blanco, Luis Nuñez Castillo", "addr:street": "Avinguda de Benito Perez Galdos", "addr:housenumber": " 47-49", "addr:postcode": " 03005", "source": "Opendata Generalitat Valenciana", "amenity": "pharmacy", "lat": 38.0740687, "lon": -0.7403849 }, "geometry": { "type": "Point", "coordinates": [ -0.7403849, 38.0740687 ] } },
{ "type": "Feature", "properties": { "source:pkey": "A-356-F", "addr:province": "Alicante", "addr:city": "Alacant \/ Alicante", "operator": "Nuria Becerra Vilaplana, Rafael Fernandez Rodriguez", "addr:street": "Carrer de Eduardo Langucha", "addr:housenumber": " 3", "addr:postcode": " 03006", "source": "Opendata Generalitat Valenciana", "amenity": "pharmacy", "lat": 38.3474733, "lon": -0.5132561 }, "geometry": { "type": "Point", "coordinates": [ -0.5132561, 38.3474733 ] } },
{ "type": "Feature", "properties": { "source:pkey": "A-357-F", "addr:province": "Alicante", "addr:city": "Alacant \/ Alicante", "operator": "Alberto Garcia Lopez", "addr:street": "Carrer de Padre Espla", "addr:housenumber": " 63", "addr:postcode": " 03013", "source": "Opendata Generalitat Valenciana", "amenity": "pharmacy", "lat": 38.0941759, "lon": -0.6565081 }, "geometry": { "type": "Point", "coordinates": [ -0.6565081, 38.0941759 ] } },
{ "type": "Feature", "properties": { "source:pkey": "A-363-F", "addr:province": "Alicante", "addr:city": "Alacant \/ Alicante", "operator": "Jose Luis Arques Soler", "addr:street": "Avinguda de Holanda", "addr:housenumber": " ", "addr:postcode": " 03540", "source": "Opendata Generalitat Valenciana", "amenity": "pharmacy", "lat": 38.5405924, "lon": -0.13728334532085093 }, "geometry": { "type": "Point", "coordinates": [ -0.137283345320851, 38.5405924 ] } },
{ "type": "Feature", "properties": { "source:pkey": "A-369-F", "addr:province": "Alicante", "addr:city": "Alacant \/ Alicante", "operator": "Angel Maria Sierra Romero", "addr:street": "PLAZA Joaquin Maria Lopez", "addr:housenumber": " 12", "addr:postcode": " 03009", "source": "Opendata Generalitat Valenciana", "amenity": "pharmacy", "lat": 38.3624012, "lon": -0.49492545640021557 }, "geometry": { "type": "Point", "coordinates": [ -0.494925456400216, 38.3624012 ] } },
{ "type": "Feature", "properties": { "source:pkey": "A-380-F", "addr:province": "Alicante", "addr:city": "Alacant \/ Alicante", "operator": "Maria Helena Del Rio Ayala", "addr:street": "Carrer de Martin Luther King", "addr:housenumber": " 9", "addr:postcode": " 03010", "source": "Opendata Generalitat Valenciana", "amenity": "pharmacy", "lat": 38.2771345, "lon": -0.7051316 }, "geometry": { "type": "Point", "coordinates": [ -0.7051316, 38.2771345 ] } },
{ "type": "Feature", "properties": { "source:pkey": "A-381-F", "addr:province": "Alicante", "addr:city": "Alacant \/ Alicante", "operator": "Maria Dolores Moyano Chicoy", "addr:street": "Avinguda de NOVELDA", "addr:housenumber": " 38", "addr:postcode": " 03010", "source": "Opendata Generalitat Valenciana", "amenity": "pharmacy", "lat": 38.3621325, "lon": -0.4930046 }, "geometry": { "type": "Point", "coordinates": [ -0.4930046, 38.3621325 ] } },
{ "type": "Feature", "properties": { "source:pkey": "A-382-F", "addr:province": "Alicante", "addr:city": "Alacant \/ Alicante", "operator": "Julia Benlloch Perez", "addr:street": "Carrer de San Mateo", "addr:housenumber": " 64", "addr:postcode": " 03013", "source": "Opendata Generalitat Valenciana", "amenity": "pharmacy", "lat": 38.1325458, "lon": -0.6780061 }, "geometry": { "type": "Point", "coordinates": [ -0.6780061, 38.1325458 ] } },
{ "type": "Feature", "properties": { "source:pkey": "A-389-F", "addr:province": "Alicante", "addr:city": "Alacant \/ Alicante", "operator": "Antonio Jose Pardo Gonzalez, Carmen Navarro Gonzalez", "addr:street": "Avinguda de SANTANDER", "addr:housenumber": " ", "addr:postcode": " 03540", "source": "Opendata Generalitat Valenciana", "amenity": "pharmacy", "lat": 38.0896896, "lon": -0.6546054 }, "geometry": { "type": "Point", "coordinates": [ -0.6546054, 38.0896896 ] } },
{ "type": "Feature", "properties": { "source:pkey": "A-393-F", "addr:province": "Alicante", "addr:city": "Alacant \/ Alicante", "operator": "David Toledano Martos", "addr:street": "Carrer de Virgen de la Salud", "addr:housenumber": " 7", "addr:postcode": " 03009", "source": "Opendata Generalitat Valenciana", "amenity": "pharmacy", "lat": 38.11881375, "lon": -0.90970570388715544 }, "geometry": { "type": "Point", "coordinates": [ -0.909705703887155, 38.11881375 ] } },
{ "type": "Feature", "properties": { "source:pkey": "A-396-F", "addr:province": "Alicante", "addr:city": "Alacant \/ Alicante", "operator": "Mª Del Carmen Esteban Delgado", "addr:street": "Carrer de Tato", "addr:housenumber": " 3", "addr:postcode": " 03005", "source": "Opendata Generalitat Valenciana", "amenity": "pharmacy", "lat": 38.0941759, "lon": -0.6565081 }, "geometry": { "type": "Point", "coordinates": [ -0.6565081, 38.0941759 ] } },
{ "type": "Feature", "properties": { "source:pkey": "A-398-F", "addr:province": "Alicante", "addr:city": "Alacant \/ Alicante", "operator": "Maria Teresa Mataix Perez", "addr:street": "Carrer de Navas (las)", "addr:housenumber": " 22", "addr:postcode": " 03001", "source": "Opendata Generalitat Valenciana", "amenity": "pharmacy", "lat": 38.3451938, "lon": -0.4869132 }, "geometry": { "type": "Point", "coordinates": [ -0.4869132, 38.3451938 ] } },
{ "type": "Feature", "properties": { "source:pkey": "A-404-F", "addr:province": "Alicante", "addr:city": "Alacant \/ Alicante", "operator": "Luis Felipe Gimeno De Castro", "addr:street": "SIERRA MARIOLA", "addr:housenumber": " G", "addr:postcode": " , 03011", "source": "Opendata Generalitat Valenciana", "amenity": "pharmacy", "lat": 38.6879925, "lon": 0.1175413 }, "geometry": { "type": "Point", "coordinates": [ 0.1175413, 38.6879925 ] } },
{ "type": "Feature", "properties": { "source:pkey": "A-406-F", "addr:province": "Alicante", "addr:city": "Alacant \/ Alicante", "operator": "Maria Jesus Lozano Jimenez, Elias Jose Otero Lozano", "addr:street": "Avinguda de Denia", "addr:housenumber": " ", "addr:postcode": " 03016", "source": "Opendata Generalitat Valenciana", "amenity": "pharmacy", "lat": 38.3831194, "lon": -0.4508033 }, "geometry": { "type": "Point", "coordinates": [ -0.4508033, 38.3831194 ] } },
{ "type": "Feature", "properties": { "source:pkey": "A-409-F", "addr:province": "Alicante", "addr:city": "Alacant \/ Alicante", "operator": "Maria Teresa Redondo Marin", "addr:street": "Carrer de Benissa", "addr:housenumber": " 2", "addr:postcode": " 03014", "source": "Opendata Generalitat Valenciana", "amenity": "pharmacy", "lat": 38.8379468, "lon": 0.1095124 }, "geometry": { "type": "Point", "coordinates": [ 0.1095124, 38.8379468 ] } },
{ "type": "Feature", "properties": { "source:pkey": "A-40-F", "addr:province": "Alicante", "addr:city": "Alacant \/ Alicante", "operator": "Jose Climent Mecho", "addr:street": "Carrer de General Espartero", "addr:housenumber": " 78", "addr:postcode": " 03012", "source": "Opendata Generalitat Valenciana", "amenity": "pharmacy", "lat": 38.0864168, "lon": -0.6491461 }, "geometry": { "type": "Point", "coordinates": [ -0.6491461, 38.0864168 ] } },
{ "type": "Feature", "properties": { "source:pkey": "A-411-F", "addr:province": "Alicante", "addr:city": "Alacant \/ Alicante", "operator": "Silvia Vives Perez", "addr:street": "Carrer de Santa Maria Mazzarello", "addr:housenumber": " 3", "addr:postcode": " 03007", "source": "Opendata Generalitat Valenciana", "amenity": "pharmacy", "lat": 38.711146, "lon": 0.0511595 }, "geometry": { "type": "Point", "coordinates": [ 0.0511595, 38.711146 ] } },
{ "type": "Feature", "properties": { "source:pkey": "A-413-F", "addr:province": "Alicante", "addr:city": "Alacant \/ Alicante", "operator": "Adelina Ripoll Linares", "addr:street": "Avinguda de Oscar Espla", "addr:housenumber": " 25", "addr:postcode": " 03007", "source": "Opendata Generalitat Valenciana", "amenity": "pharmacy", "lat": 38.5769032, "lon": -0.0661544 }, "geometry": { "type": "Point", "coordinates": [ -0.0661544, 38.5769032 ] } },
{ "type": "Feature", "properties": { "source:pkey": "A-414-F", "addr:province": "Alicante", "addr:city": "Alacant \/ Alicante", "operator": "Almudena Maria Serrano Guillen", "addr:street": "Carrer de Auso y Monzo", "addr:housenumber": " 14", "addr:postcode": " 03006", "source": "Opendata Generalitat Valenciana", "amenity": "pharmacy", "lat": 38.346835, "lon": -0.5038755 }, "geometry": { "type": "Point", "coordinates": [ -0.5038755, 38.346835 ] } },
{ "type": "Feature", "properties": { "source:pkey": "A-420-F", "addr:province": "Alicante", "addr:city": "Alacant \/ Alicante", "operator": "Cristina Andrés Cervera", "addr:street": "Avinguda de Conde de Lumiares", "addr:housenumber": " 38", "addr:postcode": " 03010", "source": "Opendata Generalitat Valenciana", "amenity": "pharmacy", "lat": 38.5103076, "lon": -0.2259393 }, "geometry": { "type": "Point", "coordinates": [ -0.2259393, 38.5103076 ] } },
{ "type": "Feature", "properties": { "source:pkey": "A-421-F", "addr:province": "Alicante", "addr:city": "Alacant \/ Alicante", "operator": "Maria Josefa Perez Bernabeu", "addr:street": "Carrer de Bono Guarner", "addr:housenumber": " 46", "addr:postcode": " 03005", "source": "Opendata Generalitat Valenciana", "amenity": "pharmacy", "lat": 38.0953672, "lon": -0.6570922 }, "geometry": { "type": "Point", "coordinates": [ -0.6570922, 38.0953672 ] } },
{ "type": "Feature", "properties": { "source:pkey": "A-422-F", "addr:province": "Alicante", "addr:city": "Alacant \/ Alicante", "operator": "Veronica Aznar Bevia", "addr:street": "Carrer de Javea", "addr:housenumber": " 96", "addr:postcode": " 03009", "source": "Opendata Generalitat Valenciana", "amenity": "pharmacy", "lat": 38.7689872, "lon": 0.1891917 }, "geometry": { "type": "Point", "coordinates": [ 0.1891917, 38.7689872 ] } },
{ "type": "Feature", "properties": { "source:pkey": "A-425-F", "addr:province": "Alicante", "addr:city": "Alacant \/ Alicante", "operator": "Maria Angeles Orts Llinares", "addr:street": "Avinguda de Cardenal Francisco Alvarez", "addr:housenumber": " 12", "addr:postcode": " 03005", "source": "Opendata Generalitat Valenciana", "amenity": "pharmacy", "lat": 38.35944265, "lon": -0.50266400664935507 }, "geometry": { "type": "Point", "coordinates": [ -0.502664006649355, 38.35944265 ] } },
{ "type": "Feature", "properties": { "source:pkey": "A-428-F", "addr:province": "Alicante", "addr:city": "Alacant \/ Alicante", "operator": "Joaquina Isabel Rangel Ramajo", "addr:street": "Carrer de ARTURO", "addr:housenumber": " 23", "addr:postcode": " 03007", "source": "Opendata Generalitat Valenciana", "amenity": "pharmacy", "lat": 38.2746592, "lon": -0.7060727 }, "geometry": { "type": "Point", "coordinates": [ -0.7060727, 38.2746592 ] } },
{ "type": "Feature", "properties": { "source:pkey": "A-431-F", "addr:province": "Alicante", "addr:city": "Alacant \/ Alicante", "operator": "Carmen Terol Valls", "addr:street": "Avinguda de VILLAJOYOSA", "addr:housenumber": " 18", "addr:postcode": " 03016", "source": "Opendata Generalitat Valenciana", "amenity": "pharmacy", "lat": 38.5097704, "lon": -0.22883 }, "geometry": { "type": "Point", "coordinates": [ -0.22883, 38.5097704 ] } },
{ "type": "Feature", "properties": { "source:pkey": "A-433-F", "addr:province": "Alicante", "addr:city": "Alacant \/ Alicante", "operator": "Ana Luisa Vicedo Jordan", "addr:street": "Carrer de Ciudad Real", "addr:housenumber": " 21", "addr:postcode": " 03005", "source": "Opendata Generalitat Valenciana", "amenity": "pharmacy", "lat": 38.2512438, "lon": -0.5199933 }, "geometry": { "type": "Point", "coordinates": [ -0.5199933, 38.2512438 ] } },
{ "type": "Feature", "properties": { "source:pkey": "A-438-F", "addr:province": "Alicante", "addr:city": "Alacant \/ Alicante", "operator": "Alberto Alzamora Buiza", "addr:street": "Carrer de Primavera", "addr:housenumber": " 19", "addr:postcode": " 03012", "source": "Opendata Generalitat Valenciana", "amenity": "pharmacy", "lat": 38.2198632, "lon": -0.64257904758149254 }, "geometry": { "type": "Point", "coordinates": [ -0.642579047581493, 38.2198632 ] } },
{ "type": "Feature", "properties": { "source:pkey": "A-439-F", "addr:province": "Alicante", "addr:city": "Alacant \/ Alicante", "operator": "Maria Del Mar Mahiquez Bujanda", "addr:street": "Carrer de CastaÃ±os", "addr:housenumber": " 9", "addr:postcode": " 03001", "source": "Opendata Generalitat Valenciana", "amenity": "pharmacy", "lat": 38.5439617, "lon": -0.5079695 }, "geometry": { "type": "Point", "coordinates": [ -0.5079695, 38.5439617 ] } },
{ "type": "Feature", "properties": { "source:pkey": "A-440-F", "addr:province": "Alicante", "addr:city": "Alacant \/ Alicante", "operator": "Jose Bolufer Vigrana", "addr:street": "Avinguda de Costa Blanca", "addr:housenumber": " 148", "addr:postcode": " 03540", "source": "Opendata Generalitat Valenciana", "amenity": "pharmacy", "lat": 38.2490042, "lon": -0.520423 }, "geometry": { "type": "Point", "coordinates": [ -0.520423, 38.2490042 ] } },
{ "type": "Feature", "properties": { "source:pkey": "A-441-F", "addr:province": "Alicante", "addr:city": "Alacant \/ Alicante", "operator": "Maria Pilar Galiana Garcia", "addr:street": "Carrer de Gran Via", "addr:housenumber": " 1", "addr:postcode": " 03009", "source": "Opendata Generalitat Valenciana", "amenity": "pharmacy", "lat": 38.2543114, "lon": -0.5247295 }, "geometry": { "type": "Point", "coordinates": [ -0.5247295, 38.2543114 ] } },
{ "type": "Feature", "properties": { "source:pkey": "A-442-F", "addr:province": "Alicante", "addr:city": "Alacant \/ Alicante", "operator": "Juan Jose Boronat Aranda, Desamparados Ramos Ramis", "addr:street": "Carrer de Ruiz de Alarcon", "addr:housenumber": " 5", "addr:postcode": " 03009", "source": "Opendata Generalitat Valenciana", "amenity": "pharmacy", "lat": 38.6175314, "lon": -0.5758574 }, "geometry": { "type": "Point", "coordinates": [ -0.5758574, 38.6175314 ] } },
{ "type": "Feature", "properties": { "source:pkey": "A-443-F", "addr:province": "Alicante", "addr:city": "Alacant \/ Alicante", "operator": "Maria Asunción Bach Buendia", "addr:street": "Carrer de Capitan Segarra", "addr:housenumber": " 11", "addr:postcode": " 03004", "source": "Opendata Generalitat Valenciana", "amenity": "pharmacy", "lat": 38.3496731, "lon": -0.4869228 }, "geometry": { "type": "Point", "coordinates": [ -0.4869228, 38.3496731 ] } },
{ "type": "Feature", "properties": { "source:pkey": "A-452-F", "addr:province": "Alicante", "addr:city": "Alacant \/ Alicante", "operator": "Maria Dolores Chicoy Massa, Rosa Maria Moyano Chicoy", "addr:street": "Avinguda de Maisonnave", "addr:housenumber": " 45", "addr:postcode": " 03003", "source": "Opendata Generalitat Valenciana", "amenity": "pharmacy", "lat": 38.4017963, "lon": -0.4357479 }, "geometry": { "type": "Point", "coordinates": [ -0.4357479, 38.4017963 ] } },
{ "type": "Feature", "properties": { "source:pkey": "A-459-F", "addr:province": "Alicante", "addr:city": "Alacant \/ Alicante", "operator": "Ignacio Manuel Medina Galvez", "addr:street": "Carrer de Antonio Noguera", "addr:housenumber": " 5", "addr:postcode": " 03014", "source": "Opendata Generalitat Valenciana", "amenity": "pharmacy", "lat": 38.1421474, "lon": -0.9624491 }, "geometry": { "type": "Point", "coordinates": [ -0.9624491, 38.1421474 ] } },
{ "type": "Feature", "properties": { "source:pkey": "A-460-F", "addr:province": "Alicante", "addr:city": "Alacant \/ Alicante", "operator": "Miguel Antonio Camacho Martinez", "addr:street": "Carrer de San Pablo", "addr:housenumber": " 69", "addr:postcode": " 03012", "source": "Opendata Generalitat Valenciana", "amenity": "pharmacy", "lat": 38.2779477, "lon": -0.7091133 }, "geometry": { "type": "Point", "coordinates": [ -0.7091133, 38.2779477 ] } },
{ "type": "Feature", "properties": { "source:pkey": "A-461-F", "addr:province": "Alicante", "addr:city": "Alacant \/ Alicante", "operator": "Pilar Miralles Del Pozo", "addr:street": "Avinguda de G.V.Conde de Casa-Rojas", "addr:housenumber": " 3", "addr:postcode": " 03006", "source": "Opendata Generalitat Valenciana", "amenity": "pharmacy", "lat": 38.3452296, "lon": -0.5074442 }, "geometry": { "type": "Point", "coordinates": [ -0.5074442, 38.3452296 ] } },
{ "type": "Feature", "properties": { "source:pkey": "A-463-F", "addr:province": "Alicante", "addr:city": "Alacant \/ Alicante", "operator": "Maria Sanchez Rodriguez, Joaquin Elier Sanchez Rodriguez", "addr:street": "Carrer de Daya Vieja", "addr:housenumber": " 17", "addr:postcode": " 03010", "source": "Opendata Generalitat Valenciana", "amenity": "pharmacy", "lat": 38.105114, "lon": -0.7380602 }, "geometry": { "type": "Point", "coordinates": [ -0.7380602, 38.105114 ] } },
{ "type": "Feature", "properties": { "source:pkey": "A-468-F", "addr:province": "Alicante", "addr:city": "Alacant \/ Alicante", "operator": "Tomas Casares Rodriguez", "addr:street": "Avinguda de Costa Blanca", "addr:housenumber": " 128", "addr:postcode": " 03540", "source": "Opendata Generalitat Valenciana", "amenity": "pharmacy", "lat": 38.2490042, "lon": -0.520423 }, "geometry": { "type": "Point", "coordinates": [ -0.520423, 38.2490042 ] } },
{ "type": "Feature", "properties": { "source:pkey": "A-477-F", "addr:province": "Alicante", "addr:city": "Alacant \/ Alicante", "operator": "Roque Luis Roldan Gutierrez", "addr:street": "Carrer de Asturias", "addr:housenumber": " 2", "addr:postcode": " 03007", "source": "Opendata Generalitat Valenciana", "amenity": "pharmacy", "lat": 38.5387661, "lon": -0.132087 }, "geometry": { "type": "Point", "coordinates": [ -0.132087, 38.5387661 ] } },
{ "type": "Feature", "properties": { "source:pkey": "A-479-F", "addr:province": "Alicante", "addr:city": "Alacant \/ Alicante", "operator": "Francisco Escolano Garcia", "addr:street": "Carrer de Cerda", "addr:housenumber": " 108", "addr:postcode": " 03009", "source": "Opendata Generalitat Valenciana", "amenity": "pharmacy", "lat": 38.5808866, "lon": -0.8508008 }, "geometry": { "type": "Point", "coordinates": [ -0.8508008, 38.5808866 ] } },
{ "type": "Feature", "properties": { "source:pkey": "A-488-F", "addr:province": "Alicante", "addr:city": "Alacant \/ Alicante", "operator": "Concepcion Galiana Garcia", "addr:street": "Carrer de VICENTE CHAVARRI", "addr:housenumber": " 18", "addr:postcode": " 03007", "source": "Opendata Generalitat Valenciana", "amenity": "pharmacy", "lat": 38.4443608, "lon": -0.464836 }, "geometry": { "type": "Point", "coordinates": [ -0.464836, 38.4443608 ] } },
{ "type": "Feature", "properties": { "source:pkey": "A-48-F", "addr:province": "Alicante", "addr:city": "Alacant \/ Alicante", "operator": "Maria Encarnacion Paez Clavero", "addr:street": "Carrer de Italia", "addr:housenumber": " 39", "addr:postcode": " 03003", "source": "Opendata Generalitat Valenciana", "amenity": "pharmacy", "lat": 38.0642334, "lon": -0.6525883 }, "geometry": { "type": "Point", "coordinates": [ -0.6525883, 38.0642334 ] } },
{ "type": "Feature", "properties": { "source:pkey": "A-492-F", "addr:province": "Alicante", "addr:city": "Alacant \/ Alicante", "operator": "Juan Antonio Domenech Bonet", "addr:street": "Carrer de Musico Alfosea", "addr:housenumber": " ", "addr:postcode": " 03011", "source": "Opendata Generalitat Valenciana", "amenity": "pharmacy", "lat": 38.3995517, "lon": -0.4572129 }, "geometry": { "type": "Point", "coordinates": [ -0.4572129, 38.3995517 ] } },
{ "type": "Feature", "properties": { "source:pkey": "A-502-F", "addr:province": "Alicante", "addr:city": "Alacant \/ Alicante", "operator": "Luis Eduardo Moreno Muñoz, Mercedes Manteca Perez", "addr:street": "Carrer de Pintor Peyret", "addr:housenumber": " 38", "addr:postcode": " 03011", "source": "Opendata Generalitat Valenciana", "amenity": "pharmacy", "lat": 38.4064109, "lon": -0.458196 }, "geometry": { "type": "Point", "coordinates": [ -0.458196, 38.4064109 ] } },
{ "type": "Feature", "properties": { "source:pkey": "A-511-F", "addr:province": "Alicante", "addr:city": "Alacant \/ Alicante", "operator": "Concepcion Torras Sanchez", "addr:street": "Carrer de Concejal Lorenzo Llaneras", "addr:housenumber": " 9", "addr:postcode": " 03005", "source": "Opendata Generalitat Valenciana", "amenity": "pharmacy", "lat": 38.3494179, "lon": -0.5008703 }, "geometry": { "type": "Point", "coordinates": [ -0.5008703, 38.3494179 ] } },
{ "type": "Feature", "properties": { "source:pkey": "A-55-F", "addr:province": "Alicante", "addr:city": "Alacant \/ Alicante", "operator": "Miguel Angel Alvado Perez", "addr:street": "Avinguda de Alcalde Lorenzo Carbonell", "addr:housenumber": " 16", "addr:postcode": " 03007", "source": "Opendata Generalitat Valenciana", "amenity": "pharmacy", "lat": 38.33951325, "lon": -0.51335654699118405 }, "geometry": { "type": "Point", "coordinates": [ -0.513356546991184, 38.33951325 ] } },
{ "type": "Feature", "properties": { "source:pkey": "A-56-F", "addr:province": "Alicante", "addr:city": "Alacant \/ Alicante", "operator": "Pedro Belda Calatayud", "addr:street": "Carrer de CANALEJAS", "addr:housenumber": " 5", "addr:postcode": " 03001", "source": "Opendata Generalitat Valenciana", "amenity": "pharmacy", "lat": 38.5007721, "lon": -0.3647319 }, "geometry": { "type": "Point", "coordinates": [ -0.3647319, 38.5007721 ] } },
{ "type": "Feature", "properties": { "source:pkey": "A-582-F", "addr:province": "Alicante", "addr:city": "Alacant \/ Alicante", "operator": "Beatriz Flores Argente", "addr:street": "Carrer de Pintor Antonio Amoros", "addr:housenumber": " 2", "addr:postcode": " 03015", "source": "Opendata Generalitat Valenciana", "amenity": "pharmacy", "lat": 38.369685, "lon": -0.471496 }, "geometry": { "type": "Point", "coordinates": [ -0.471496, 38.369685 ] } },
{ "type": "Feature", "properties": { "source:pkey": "A-583-F", "addr:province": "Alicante", "addr:city": "Alacant \/ Alicante", "operator": "Maria Jose Zaragoza Bernal", "addr:street": "Carrer de Ramon Gomez Sempere", "addr:housenumber": " 28", "addr:postcode": " 03008", "source": "Opendata Generalitat Valenciana", "amenity": "pharmacy", "lat": 38.3310431, "lon": -0.5131378 }, "geometry": { "type": "Point", "coordinates": [ -0.5131378, 38.3310431 ] } },
{ "type": "Feature", "properties": { "source:pkey": "A-586-F", "addr:province": "Alicante", "addr:city": "Alacant \/ Alicante", "operator": "Tomas Sanchez Cobo", "addr:street": "PASEO Mayor", "addr:housenumber": " 30", "addr:postcode": " 03113", "source": "Opendata Generalitat Valenciana", "amenity": "pharmacy", "lat": 38.3429505, "lon": -0.6093117 }, "geometry": { "type": "Point", "coordinates": [ -0.6093117, 38.3429505 ] } },
{ "type": "Feature", "properties": { "source:pkey": "A-596-F", "addr:province": "Alicante", "addr:city": "Alacant \/ Alicante", "operator": "Carmen Bolufer Vigrana", "addr:street": "Avinguda de Costa Blanca", "addr:housenumber": " 21", "addr:postcode": " 03540", "source": "Opendata Generalitat Valenciana", "amenity": "pharmacy", "lat": 38.2490042, "lon": -0.520423 }, "geometry": { "type": "Point", "coordinates": [ -0.520423, 38.2490042 ] } },
{ "type": "Feature", "properties": { "source:pkey": "A-602-F", "addr:province": "Alicante", "addr:city": "Alacant \/ Alicante", "operator": "Paloma Payno De Orive", "addr:street": "CENTRO COMERCIAL PAU", "addr:housenumber": " SUBLOCAL 4-2", "addr:postcode": " , 03540", "source": "Opendata Generalitat Valenciana", "amenity": "pharmacy", "lat": 38.3412286, "lon": -0.51808399842594444 }, "geometry": { "type": "Point", "coordinates": [ -0.518083998425944, 38.3412286 ] } },
{ "type": "Feature", "properties": { "source:pkey": "A-60-F", "addr:province": "Alicante", "addr:city": "Alacant \/ Alicante", "operator": "Concepcion Dominguez Galbis", "addr:street": "Carrer de Plus Ultra", "addr:housenumber": " 11", "addr:postcode": " 03012", "source": "Opendata Generalitat Valenciana", "amenity": "pharmacy", "lat": 38.2932625, "lon": -0.5911968 }, "geometry": { "type": "Point", "coordinates": [ -0.5911968, 38.2932625 ] } },
{ "type": "Feature", "properties": { "source:pkey": "A-62-F", "addr:province": "Alicante", "addr:city": "Alacant \/ Alicante", "operator": "Jose Maria Paez Clavero", "addr:street": "Carrer de Prudencio de la Vi?a", "addr:housenumber": " 9", "addr:postcode": " 03007", "source": "Opendata Generalitat Valenciana", "amenity": "pharmacy", "lat": 38.3429258, "lon": -0.5108303 }, "geometry": { "type": "Point", "coordinates": [ -0.5108303, 38.3429258 ] } },
{ "type": "Feature", "properties": { "source:pkey": "A-630-F", "addr:province": "Alicante", "addr:city": "Alacant \/ Alicante", "operator": "Francisco Fernandez Beltran", "addr:street": "Avinguda de Doctor Rico", "addr:housenumber": " 7", "addr:postcode": " 03005", "source": "Opendata Generalitat Valenciana", "amenity": "pharmacy", "lat": 38.3943402, "lon": -0.43777293968673453 }, "geometry": { "type": "Point", "coordinates": [ -0.437772939686735, 38.3943402 ] } },
{ "type": "Feature", "properties": { "source:pkey": "A-64-F", "addr:province": "Alicante", "addr:city": "Alacant \/ Alicante", "operator": "Pilar Galan Vazquez", "addr:street": "GTA Deportista Javier Cabanas", "addr:housenumber": " 9", "addr:postcode": " 03540", "source": "Opendata Generalitat Valenciana", "amenity": "pharmacy", "lat": 38.38446085, "lon": -0.41188387461652909 }, "geometry": { "type": "Point", "coordinates": [ -0.411883874616529, 38.38446085 ] } },
{ "type": "Feature", "properties": { "source:pkey": "A-660-F", "addr:province": "Alicante", "addr:city": "Alacant \/ Alicante", "operator": "Marina Jover Martinez, Daniel Jover Martinez", "addr:street": "Avinguda de Costa Blanca", "addr:housenumber": " 110", "addr:postcode": " 03540", "source": "Opendata Generalitat Valenciana", "amenity": "pharmacy", "lat": 38.2490042, "lon": -0.520423 }, "geometry": { "type": "Point", "coordinates": [ -0.520423, 38.2490042 ] } },
{ "type": "Feature", "properties": { "source:pkey": "A-67-F", "addr:province": "Alicante", "addr:city": "Alacant \/ Alicante", "operator": "Mercedes Ruiz De La Cuesta Juste, Maria Del Dulce Nombre Estañ Yago", "addr:street": "Carrer de Pintor Gisbert", "addr:housenumber": " 50", "addr:postcode": " 03005", "source": "Opendata Generalitat Valenciana", "amenity": "pharmacy", "lat": 38.4039401, "lon": -0.4592511 }, "geometry": { "type": "Point", "coordinates": [ -0.4592511, 38.4039401 ] } },
{ "type": "Feature", "properties": { "source:pkey": "A-680-F", "addr:province": "Alicante", "addr:city": "Alacant \/ Alicante", "operator": "Maria Jose Gomez Gutierrez", "addr:street": "Avinguda de DE LA CONDOMINA", "addr:housenumber": " 45", "addr:postcode": " 03016", "source": "Opendata Generalitat Valenciana", "amenity": "pharmacy", "lat": 38.6086591, "lon": -0.4211392 }, "geometry": { "type": "Point", "coordinates": [ -0.4211392, 38.6086591 ] } },
{ "type": "Feature", "properties": { "source:pkey": "A-686-F", "addr:province": "Alicante", "addr:city": "Alacant \/ Alicante", "operator": "Dolores Rosa Compañ Barco", "addr:street": "Carretera de Alcoraya", "addr:housenumber": " 88", "addr:postcode": " 03699", "source": "Opendata Generalitat Valenciana", "amenity": "pharmacy", "lat": 38.3970443, "lon": -0.5357728 }, "geometry": { "type": "Point", "coordinates": [ -0.5357728, 38.3970443 ] } },
{ "type": "Feature", "properties": { "source:pkey": "A-76-F", "addr:province": "Alicante", "addr:city": "Alacant \/ Alicante", "operator": "Dolores Galipienso Poveda", "addr:street": "Carrer de ELOY ARENAS", "addr:housenumber": " 46", "addr:postcode": " 03006", "source": "Opendata Generalitat Valenciana", "amenity": "pharmacy", "lat": 38.1362042, "lon": -0.767105 }, "geometry": { "type": "Point", "coordinates": [ -0.767105, 38.1362042 ] } },
{ "type": "Feature", "properties": { "source:pkey": "A-81-F", "addr:province": "Alicante", "addr:city": "Alacant \/ Alicante", "operator": "Ignacio Mataix Diaz, Concepcion Diaz Laliga", "addr:street": "Carrer de Antonio Maura", "addr:housenumber": " 22", "addr:postcode": " 03013", "source": "Opendata Generalitat Valenciana", "amenity": "pharmacy", "lat": 38.0616971, "lon": -0.8990648 }, "geometry": { "type": "Point", "coordinates": [ -0.8990648, 38.0616971 ] } },
{ "type": "Feature", "properties": { "source:pkey": "A-86-F", "addr:province": "Alicante", "addr:city": "Alacant \/ Alicante", "operator": "Isabel Jornet Garcia", "addr:street": "Avinguda de JIJONA", "addr:housenumber": " 44", "addr:postcode": " 03012", "source": "Opendata Generalitat Valenciana", "amenity": "pharmacy", "lat": 38.5405494, "lon": -0.5067472 }, "geometry": { "type": "Point", "coordinates": [ -0.5067472, 38.5405494 ] } },
{ "type": "Feature", "properties": { "source:pkey": "A-87-F", "addr:province": "Alicante", "addr:city": "Alacant \/ Alicante", "operator": "Maria Consolacion Cortes Segui", "addr:street": "Carrer de Medico Vicente Reyes", "addr:housenumber": " 12", "addr:postcode": " 03015", "source": "Opendata Generalitat Valenciana", "amenity": "pharmacy", "lat": 38.3620127, "lon": -0.4740932 }, "geometry": { "type": "Point", "coordinates": [ -0.4740932, 38.3620127 ] } },
{ "type": "Feature", "properties": { "source:pkey": "A-88-F", "addr:province": "Alicante", "addr:city": "Alacant \/ Alicante", "operator": "Jose Luis Gimeno Jover", "addr:street": "PLAZA Oran", "addr:housenumber": " 4", "addr:postcode": " 03014", "source": "Opendata Generalitat Valenciana", "amenity": "pharmacy", "lat": 38.3717168, "lon": -0.4845182 }, "geometry": { "type": "Point", "coordinates": [ -0.4845182, 38.3717168 ] } },
{ "type": "Feature", "properties": { "source:pkey": "A-90-F", "addr:province": "Alicante", "addr:city": "Alacant \/ Alicante", "operator": "Soledad Martinez Lillo", "addr:street": "Avinguda de Alfonso el Sabio", "addr:housenumber": " 34", "addr:postcode": " 03004", "source": "Opendata Generalitat Valenciana", "amenity": "pharmacy", "lat": 38.0899255, "lon": -0.7237522 }, "geometry": { "type": "Point", "coordinates": [ -0.7237522, 38.0899255 ] } },
{ "type": "Feature", "properties": { "source:pkey": "A-91-F", "addr:province": "Alicante", "addr:city": "Alacant \/ Alicante", "operator": "Pascual Pedro Molina Ferri", "addr:street": "Carrer de Maestro Caballero", "addr:housenumber": " 1", "addr:postcode": " 03004", "source": "Opendata Generalitat Valenciana", "amenity": "pharmacy", "lat": 38.7879819, "lon": 0.170369 }, "geometry": { "type": "Point", "coordinates": [ 0.170369, 38.7879819 ] } },
{ "type": "Feature", "properties": { "source:pkey": "A-92-F", "addr:province": "Alicante", "addr:city": "Alacant \/ Alicante", "operator": "Carmen Canales Mira, Jose Maria Sanz Canales", "addr:street": "Carrer de Calderon de la Barca", "addr:housenumber": " 29", "addr:postcode": " 03004", "source": "Opendata Generalitat Valenciana", "amenity": "pharmacy", "lat": 38.6993856, "lon": -0.3878765 }, "geometry": { "type": "Point", "coordinates": [ -0.3878765, 38.6993856 ] } },
{ "type": "Feature", "properties": { "source:pkey": "A-9-F", "addr:province": "Alicante", "addr:city": "Alacant \/ Alicante", "operator": "Jose Manuel Miquel Fernandez", "addr:street": "Carrer de San Carlos", "addr:housenumber": " 131", "addr:postcode": " 03013", "source": "Opendata Generalitat Valenciana", "amenity": "pharmacy", "lat": 38.1372846, "lon": -0.9313177 }, "geometry": { "type": "Point", "coordinates": [ -0.9313177, 38.1372846 ] } },
{ "type": "Feature", "properties": { "source:pkey": "A-138-F", "addr:province": "Alicante", "addr:city": "Almoradí", "operator": "Abel Jesus Moreno Selma", "addr:street": "Carrer de Mayor", "addr:housenumber": " 75", "addr:postcode": " 03160", "source": "Opendata Generalitat Valenciana", "amenity": "pharmacy", "lat": 38.0894742, "lon": -0.8208873 }, "geometry": { "type": "Point", "coordinates": [ -0.8208873, 38.0894742 ] } },
{ "type": "Feature", "properties": { "source:pkey": "A-140-F", "addr:province": "Alicante", "addr:city": "Almoradí", "operator": "Alicia Martinez Reina", "addr:street": "PLAZA De la Constitucion", "addr:housenumber": " 11", "addr:postcode": " 03160", "source": "Opendata Generalitat Valenciana", "amenity": "pharmacy", "lat": 38.10921425, "lon": -0.7918374928283719 }, "geometry": { "type": "Point", "coordinates": [ -0.791837492828372, 38.10921425 ] } },
{ "type": "Feature", "properties": { "source:pkey": "A-254-F", "addr:province": "Alicante", "addr:city": "Almoradí", "operator": "Juan Pascual Valdes Birlanga", "addr:street": "Carrer de Mayor", "addr:housenumber": " 29", "addr:postcode": " 03160", "source": "Opendata Generalitat Valenciana", "amenity": "pharmacy", "lat": 38.0894742, "lon": -0.8208873 }, "geometry": { "type": "Point", "coordinates": [ -0.8208873, 38.0894742 ] } },
{ "type": "Feature", "properties": { "source:pkey": "A-733-F", "addr:province": "Alicante", "addr:city": "Almoradí", "operator": "Jose Luis Martinez-Lozano Martinez", "addr:street": "Carrer de Canalejas", "addr:housenumber": " 13", "addr:postcode": " 03160", "source": "Opendata Generalitat Valenciana", "amenity": "pharmacy", "lat": 38.0934095, "lon": -0.6576131 }, "geometry": { "type": "Point", "coordinates": [ -0.6576131, 38.0934095 ] } },
{ "type": "Feature", "properties": { "source:pkey": "A-838-F", "addr:province": "Alicante", "addr:city": "Almoradí", "operator": "Alicia Peris Leon", "addr:street": "Carrer de Cristobal Colon", "addr:housenumber": " ", "addr:postcode": " 03160", "source": "Opendata Generalitat Valenciana", "amenity": "pharmacy", "lat": 38.1131161, "lon": -0.7900284 }, "geometry": { "type": "Point", "coordinates": [ -0.7900284, 38.1131161 ] } },
{ "type": "Feature", "properties": { "source:pkey": "A-543-F", "addr:province": "Alicante", "addr:city": "L'Alqueria D'Asnar", "operator": "Mireia Garcia  San Felix", "addr:street": "Avinguda de Pais Valencia", "addr:housenumber": " 16", "addr:postcode": " 03829", "source": "Opendata Generalitat Valenciana", "amenity": "pharmacy", "lat": 38.7721112, "lon": -0.4250335 }, "geometry": { "type": "Point", "coordinates": [ -0.4250335, 38.7721112 ] } },
{ "type": "Feature", "properties": { "source:pkey": "A-139-F", "addr:province": "Alicante", "addr:city": "Altea", "operator": "Matias Guillen Riera", "addr:street": "Carrer de Sequia (la)", "addr:housenumber": " 17", "addr:postcode": " 03590", "source": "Opendata Generalitat Valenciana", "amenity": "pharmacy", "lat": 38.53067, "lon": -0.5778605 }, "geometry": { "type": "Point", "coordinates": [ -0.5778605, 38.53067 ] } },
{ "type": "Feature", "properties": { "source:pkey": "A-325-F", "addr:province": "Alicante", "addr:city": "Altea", "operator": "Diego Soler Diaz", "addr:street": "AYUNTAMIENTO", "addr:housenumber": " 22", "addr:postcode": " 03590", "source": "Opendata Generalitat Valenciana", "amenity": "pharmacy", "lat": 38.6021385, "lon": -0.0475797 }, "geometry": { "type": "Point", "coordinates": [ -0.0475797, 38.6021385 ] } },
{ "type": "Feature", "properties": { "source:pkey": "A-494-F", "addr:province": "Alicante", "addr:city": "Altea", "operator": "Juan B. Galiana Ferrando", "addr:street": "Carrer de Sant Pere", "addr:housenumber": " 36", "addr:postcode": " 03590", "source": "Opendata Generalitat Valenciana", "amenity": "pharmacy", "lat": 38.5938289, "lon": -0.0537565 }, "geometry": { "type": "Point", "coordinates": [ -0.0537565, 38.5938289 ] } },
{ "type": "Feature", "properties": { "source:pkey": "A-495-F", "addr:province": "Alicante", "addr:city": "Altea", "operator": "Leandra Chorro Salva", "addr:street": "Carrer de Carretera Callosa", "addr:housenumber": " 67", "addr:postcode": " 03599", "source": "Opendata Generalitat Valenciana", "amenity": "pharmacy", "lat": 38.6049308, "lon": -0.0430663 }, "geometry": { "type": "Point", "coordinates": [ -0.0430663, 38.6049308 ] } },
{ "type": "Feature", "properties": { "source:pkey": "A-574-F", "addr:province": "Alicante", "addr:city": "Altea", "operator": "Francisca Perez Albiñana", "addr:street": "Carrer de Beniarda", "addr:housenumber": " 2", "addr:postcode": " 03590", "source": "Opendata Generalitat Valenciana", "amenity": "pharmacy", "lat": 38.5006516, "lon": -0.2445189 }, "geometry": { "type": "Point", "coordinates": [ -0.2445189, 38.5006516 ] } },
{ "type": "Feature", "properties": { "source:pkey": "A-654-F", "addr:province": "Alicante", "addr:city": "Altea", "operator": "Magdalena Lloret Gorgoll", "addr:street": ". Partida Cap-Negret", "addr:housenumber": " 18", "addr:postcode": " 03590", "source": "Opendata Generalitat Valenciana", "amenity": "pharmacy", "lat": 38.610568, "lon": -0.0409684 }, "geometry": { "type": "Point", "coordinates": [ -0.0409684, 38.610568 ] } },
{ "type": "Feature", "properties": { "source:pkey": "A-822-F", "addr:province": "Alicante", "addr:city": "Altea", "operator": "Vicente Vicent Lopez", "addr:street": "Avinguda de Comunitat Valenciana", "addr:housenumber": " 6", "addr:postcode": " 03590", "source": "Opendata Generalitat Valenciana", "amenity": "pharmacy", "lat": 38.6061433, "lon": -0.0468839 }, "geometry": { "type": "Point", "coordinates": [ -0.0468839, 38.6061433 ] } },
{ "type": "Feature", "properties": { "source:pkey": "A-114-F", "addr:province": "Alicante", "addr:city": "Aspe", "operator": "Mª Jose Lopez Lloret", "addr:street": "Carrer de San Jose", "addr:housenumber": " 42", "addr:postcode": " 03680", "source": "Opendata Generalitat Valenciana", "amenity": "pharmacy", "lat": 38.2641714, "lon": -0.7014767 }, "geometry": { "type": "Point", "coordinates": [ -0.7014767, 38.2641714 ] } },
{ "type": "Feature", "properties": { "source:pkey": "A-188-F", "addr:province": "Alicante", "addr:city": "Aspe", "operator": "Javier Santias Samperio", "addr:street": "Avinguda de Constitucion", "addr:housenumber": " 4", "addr:postcode": " 03680", "source": "Opendata Generalitat Valenciana", "amenity": "pharmacy", "lat": 38.56185565, "lon": -0.26382948484040714 }, "geometry": { "type": "Point", "coordinates": [ -0.263829484840407, 38.56185565 ] } },
{ "type": "Feature", "properties": { "source:pkey": "A-19-F", "addr:province": "Alicante", "addr:city": "Aspe", "operator": "Carmen Bordallo Oreja", "addr:street": "PQUE Doctor Calatayud", "addr:housenumber": " 12", "addr:postcode": " 03680", "source": "Opendata Generalitat Valenciana", "amenity": "pharmacy", "lat": 38.3468643, "lon": -0.76716154404556891 }, "geometry": { "type": "Point", "coordinates": [ -0.767161544045569, 38.3468643 ] } },
{ "type": "Feature", "properties": { "source:pkey": "A-50-F", "addr:province": "Alicante", "addr:city": "Aspe", "operator": "Javier Cremades Alcaraz", "addr:street": "Carrer de Teodoro Alenda", "addr:housenumber": " 24", "addr:postcode": " 03680", "source": "Opendata Generalitat Valenciana", "amenity": "pharmacy", "lat": 38.3450725, "lon": -0.7680538 }, "geometry": { "type": "Point", "coordinates": [ -0.7680538, 38.3450725 ] } },
{ "type": "Feature", "properties": { "source:pkey": "A-823-F", "addr:province": "Alicante", "addr:city": "Aspe", "operator": "Julio Piera Balaguer", "addr:street": "Avinguda de Padre Ismael", "addr:housenumber": " 58", "addr:postcode": " 03680", "source": "Opendata Generalitat Valenciana", "amenity": "pharmacy", "lat": 38.3462461, "lon": -0.75892689715681372 }, "geometry": { "type": "Point", "coordinates": [ -0.758926897156814, 38.3462461 ] } },
{ "type": "Feature", "properties": { "source:pkey": "A-523-F", "addr:province": "Alicante", "addr:city": "L'Atzúbia", "operator": "Maria Rosa Peiro Cabrera", "addr:street": "Carrer de Torres OrduÃ±a", "addr:housenumber": " 58", "addr:postcode": " 03786", "source": "Opendata Generalitat Valenciana", "amenity": "pharmacy", "lat": 38.8480034, "lon": -0.1503297 }, "geometry": { "type": "Point", "coordinates": [ -0.1503297, 38.8480034 ] } },
{ "type": "Feature", "properties": { "source:pkey": "A-530-F", "addr:province": "Alicante", "addr:city": "Balones", "operator": "Julio Jimenez Valera", "addr:street": "RUZAFA", "addr:housenumber": " EDF.AMPLIACarrer de H.LUNA.L-2", "addr:postcode": " , 03501", "source": "Opendata Generalitat Valenciana", "amenity": "pharmacy", "lat": 38.7366221, "lon": -0.3424811 }, "geometry": { "type": "Point", "coordinates": [ -0.3424811, 38.7366221 ] } },
{ "type": "Feature", "properties": { "source:pkey": "A-179-F", "addr:province": "Alicante", "addr:city": "Banyeres De Mariola", "operator": "Enrique Garcia Carrion", "addr:street": "Avinguda de Portugal", "addr:housenumber": " 4", "addr:postcode": " 03502", "source": "Opendata Generalitat Valenciana", "amenity": "pharmacy", "lat": 38.711377, "lon": -0.6507843 }, "geometry": { "type": "Point", "coordinates": [ -0.6507843, 38.711377 ] } },
{ "type": "Feature", "properties": { "source:pkey": "A-189-F", "addr:province": "Alicante", "addr:city": "Banyeres De Mariola", "operator": "Maria Amigo Avellan", "addr:street": "Avinguda de NICARAGUA", "addr:housenumber": " 15", "addr:postcode": " 03502", "source": "Opendata Generalitat Valenciana", "amenity": "pharmacy", "lat": 38.711377, "lon": -0.6507843 }, "geometry": { "type": "Point", "coordinates": [ -0.6507843, 38.711377 ] } },
{ "type": "Feature", "properties": { "source:pkey": "A-622-F", "addr:province": "Alicante", "addr:city": "Benasau", "operator": "Miguel Salvador Ripoll Llobell", "addr:street": "Avinguda de Valencia", "addr:housenumber": " 4", "addr:postcode": " 03503", "source": "Opendata Generalitat Valenciana", "amenity": "pharmacy", "lat": 38.8471335, "lon": 0.0080741 }, "geometry": { "type": "Point", "coordinates": [ 0.0080741, 38.8471335 ] } },
{ "type": "Feature", "properties": { "source:pkey": "A-168-F", "addr:province": "Alicante", "addr:city": "Beneixama", "operator": "Juan Egea Soler", "addr:street": "Avinguda de REY JAIME I", "addr:housenumber": " 1", "addr:postcode": " 03502", "source": "Opendata Generalitat Valenciana", "amenity": "pharmacy", "lat": 38.5405721, "lon": -0.1347785 }, "geometry": { "type": "Point", "coordinates": [ -0.1347785, 38.5405721 ] } },
{ "type": "Feature", "properties": { "source:pkey": "A-72-F", "addr:province": "Alicante", "addr:city": "Benejúzar", "operator": "Domingo Gonzalez Ruiz", "addr:street": "Avinguda de DE EUROPA", "addr:housenumber": " 6", "addr:postcode": " 03503", "source": "Opendata Generalitat Valenciana", "amenity": "pharmacy", "lat": 38.8442761, "lon": 0.1041802 }, "geometry": { "type": "Point", "coordinates": [ 0.1041802, 38.8442761 ] } },
{ "type": "Feature", "properties": { "source:pkey": "A-293-F", "addr:province": "Alicante", "addr:city": "Benferri", "operator": "Purificacion Navarro Gomez-Pardo", "addr:street": "Carrer de Santander", "addr:housenumber": " 18", "addr:postcode": " 03502", "source": "Opendata Generalitat Valenciana", "amenity": "pharmacy", "lat": 38.4778152, "lon": -0.315164 }, "geometry": { "type": "Point", "coordinates": [ -0.315164, 38.4778152 ] } },
{ "type": "Feature", "properties": { "source:pkey": "A-156-F", "addr:province": "Alicante", "addr:city": "Beniarbeig", "operator": "Vicente J. Miralles Vives", "addr:street": "Carrer de Ibiza", "addr:housenumber": " 6", "addr:postcode": " 03503", "source": "Opendata Generalitat Valenciana", "amenity": "pharmacy", "lat": 38.3672136, "lon": -0.4779355 }, "geometry": { "type": "Point", "coordinates": [ -0.4779355, 38.3672136 ] } },
{ "type": "Feature", "properties": { "source:pkey": "A-618-F", "addr:province": "Alicante", "addr:city": "Beniardá", "operator": "Carmen Rodriguez Ruiz", "addr:street": "VIA Emilio OrtuÃ±o", "addr:housenumber": " 21", "addr:postcode": " 03501", "source": "Opendata Generalitat Valenciana", "amenity": "pharmacy", "lat": 38.5399883, "lon": -0.1251183 }, "geometry": { "type": "Point", "coordinates": [ -0.1251183, 38.5399883 ] } },
{ "type": "Feature", "properties": { "source:pkey": "A-149-F", "addr:province": "Alicante", "addr:city": "Beniarrés", "operator": "Francisco Jose Martinez Llamas", "addr:street": "Avinguda de Vila Joiosa", "addr:housenumber": " 19", "addr:postcode": " 03502", "source": "Opendata Generalitat Valenciana", "amenity": "pharmacy", "lat": 38.534849, "lon": -0.156386 }, "geometry": { "type": "Point", "coordinates": [ -0.156386, 38.534849 ] } },
{ "type": "Feature", "properties": { "source:pkey": "A-173-F", "addr:province": "Alicante", "addr:city": "Benidorm", "operator": "Jorge Martinez De La Camara Salmeron", "addr:street": "Avinguda de Finlandia", "addr:housenumber": " 2", "addr:postcode": " 03502", "source": "Opendata Generalitat Valenciana", "amenity": "pharmacy", "lat": 38.7443029, "lon": -0.0684397 }, "geometry": { "type": "Point", "coordinates": [ -0.0684397, 38.7443029 ] } },
{ "type": "Feature", "properties": { "source:pkey": "A-268-F", "addr:province": "Alicante", "addr:city": "Benidorm", "operator": "Fulgencio Luz Ruiz, Matias Rafael Luz Ruiz", "addr:street": "Carrer de Esperanto", "addr:housenumber": " 10", "addr:postcode": " 03503", "source": "Opendata Generalitat Valenciana", "amenity": "pharmacy", "lat": 38.5785234, "lon": -0.0818424 }, "geometry": { "type": "Point", "coordinates": [ -0.0818424, 38.5785234 ] } },
{ "type": "Feature", "properties": { "source:pkey": "A-300-F", "addr:province": "Alicante", "addr:city": "Benidorm", "operator": "Sonia Ortiz O&Apos;Connor, Alejandra Ortiz O&Apos;Connor", "addr:street": "MONTERA", "addr:housenumber": " E.MARINA CANALS L-6", "addr:postcode": " , 03502", "source": "Opendata Generalitat Valenciana", "amenity": "pharmacy", "lat": 38.5426092, "lon": -0.1353413 }, "geometry": { "type": "Point", "coordinates": [ -0.1353413, 38.5426092 ] } },